title,distance,id_x,address.locality,address.postal-code,address.street-address,location.latitude_x,location.longitude_x,key,mercator_x,id_y,name,address,dock_bikes,free_bases,location.longitude_y,location.latitude_y,mercator_y,point_of_interest_google_maps,BiciMad_google_maps,url_google_maps
Colegio Público Adolfo Suárez,3796.3942398964855,176850,MADRID,28050,CALLE INFANTA CATALINA MICAELA 31,40.48860266655876,-3.6525544243312855,1,POINT (4507170.6317725 -406876.1792826843),257,Manuel Caldeiro,Paseo de la Castellana nº 298,9,15,-3.68532,40.47938,POINT (4506143.969227422 -410531.1174823334),Colegio+Público+Adolfo+Suárez,Manuel+Caldeiro,https://www.google.com/maps/dir/Colegio+Público+Adolfo+Suárez/Bicimad+Manuel+Caldeiro
Colegio Público Agustina Díez,1932.1238565239294,5075,MADRID,28038,CALLE VESUBIO 5,40.3881909372302,-3.647236724917086,1,POINT (4495992.849193973 -406283.0125532473),234,Sierra Toledana,Camino de Valderribas nº 94,10,14,-3.6607768678037744,40.39901531507069,POINT (4497197.81342333 -407793.364764792),Colegio+Público+Agustina+Díez,Sierra+Toledana,https://www.google.com/maps/dir/Colegio+Público+Agustina+Díez/Bicimad+Sierra+Toledana
Colegio Público Agustín Rodriguez Sahagún,3856.153930695459,4693138,MADRID,28031,CALLE LA GRANJA DE SAN ILDEFONSO 17,40.36803998494376,-3.6221677428793977,1,POINT (4493749.655446447 -403486.7215186193),229,Pavones,Calle Hacienda de Pavones nº 342,11,12,-3.634587,40.400368,POINT (4497348.393620864 -404872.003688147),Colegio+Público+Agustín+Rodriguez+Sahagún,Pavones,https://www.google.com/maps/dir/Colegio+Público+Agustín+Rodriguez+Sahagún/Bicimad+Pavones
Colegio Público Alberto Alcocer,3253.4711167218056,5076,MADRID,28022,AVENIDA CANILLEJAS A VICALVARO 56,40.43333782278732,-3.6120521748962555,1,POINT (4501018.577505093 -402358.4139760713),223,Gutierre de Cetina,Calle Gutierre de Cetina nº 77,13,10,-3.640994,40.429706,POINT (4500614.284841758 -405586.6676448087),Colegio+Público+Alberto+Alcocer,Gutierre+de+Cetina,https://www.google.com/maps/dir/Colegio+Público+Alberto+Alcocer/Bicimad+Gutierre+de+Cetina
Colegio Público Alcalde de Móstoles,6261.761114560321,5077,MADRID,28044,CALLE ALDEANUEVA DE LA VERA 9,40.37983690289588,-3.7764479299262628,1,POINT (4495062.882345807 -420696.9779405064),232,Caramuel,Calle Caramuel nº 51,5,18,-3.728533714316331,40.40913630273305,POINT (4498324.476616229 -415351.7319152079),Colegio+Público+Alcalde+de+Móstoles,Caramuel,https://www.google.com/maps/dir/Colegio+Público+Alcalde+de+Móstoles/Bicimad+Caramuel
Colegio Público Alfonso X El Sabio,3460.1728042128807,5078,MADRID,28032,CALLE FUENTE DE SAN PEDRO 6,40.403201384467415,-3.6036948781029365,1,POINT (4497663.804536998 -401426.2364602285),229,Pavones,Calle Hacienda de Pavones nº 342,11,12,-3.634587,40.400368,POINT (4497348.393620864 -404872.003688147),Colegio+Público+Alfonso+X+El+Sabio,Pavones,https://www.google.com/maps/dir/Colegio+Público+Alfonso+X+El+Sabio/Bicimad+Pavones
Colegio Público Alfredo di Stefano,3253.4711167218056,10770379,MADRID,28022,calle felix candela 4,40.43333782278732,-3.6120521748962555,1,POINT (4501018.577505093 -402358.4139760713),223,Gutierre de Cetina,Calle Gutierre de Cetina nº 77,13,10,-3.640994,40.429706,POINT (4500614.284841758 -405586.6676448087),Colegio+Público+Alfredo+di+Stefano,Gutierre+de+Cetina,https://www.google.com/maps/dir/Colegio+Público+Alfredo+di+Stefano/Bicimad+Gutierre+de+Cetina
Colegio Público Alhambra,3619.2484908882893,5079,MADRID,28035,CALLE RAMON GOMEZ DE LA SERNA 103,40.48349348726197,-3.726718327962491,1,POINT (4506601.880534809 -415149.2155845246),269,Facultad Derecho,Avenida Complutense nº 23,9,15,-3.72937,40.45109,POINT (4502994.74083288 -415445.0243226733),Colegio+Público+Alhambra,Facultad+Derecho,https://www.google.com/maps/dir/Colegio+Público+Alhambra/Bicimad+Facultad+Derecho
Colegio Público Amadeo Vives,3267.146947373068,5080,MADRID,28047,CALLE LOS YEBENES 6,40.39743593771221,-3.755392529137971,1,POINT (4497021.997940013 -418348.0293760306),232,Caramuel,Calle Caramuel nº 51,5,18,-3.728533714316331,40.40913630273305,POINT (4498324.476616229 -415351.7319152079),Colegio+Público+Amadeo+Vives,Caramuel,https://www.google.com/maps/dir/Colegio+Público+Amadeo+Vives/Bicimad+Caramuel
Colegio Público Amador de los Ríos,318.4255085840301,5081,MADRID,28028,PASEO MARQUES DE ZAFRA 16,40.426279629183625,-3.6665578263940595,1,POINT (4500232.86298721 -408438.2159888388),191,Doctor Esquerdo-Hermosilla,Calle Hermosilla nº 135,11,12,-3.669339,40.425635,POINT (4500161.103194738 -408748.4503143113),Colegio+Público+Amador+de+los+Ríos,Doctor+Esquerdo-Hermosilla,https://www.google.com/maps/dir/Colegio+Público+Amador+de+los+Ríos/Bicimad+Doctor+Esquerdo-Hermosilla
Colegio Público Amós Acero,468.28926332620364,5083,MADRID,28053,CALLE RODRIGUEZ ESPINOSA 54,40.390223332282275,-3.6637750346593543,1,POINT (4496219.09437626 -408127.8021301892),236,Concordia,Calle Arroyo del Olivar nº 6,2,21,-3.6659362429356372,40.39382977920336,POINT (4496620.562211088 -408368.8797354235),Colegio+Público+Amós+Acero,Concordia,https://www.google.com/maps/dir/Colegio+Público+Amós+Acero/Bicimad+Concordia
Colegio Público Angel Nieto,6818.125902220048,5295314,MADRID,28051,AVENIDA LAS SUERTES 109,40.36117774761706,-3.587611628781373,1,POINT (4492985.754681535 -399632.3259973364),229,Pavones,Calle Hacienda de Pavones nº 342,11,12,-3.634587,40.400368,POINT (4497348.393620864 -404872.003688147),Colegio+Público+Angel+Nieto,Pavones,https://www.google.com/maps/dir/Colegio+Público+Angel+Nieto/Bicimad+Pavones
Colegio Público Antonio Fontan,3446.5490646603603,5792171,MADRID,28049,AVENIDA SANTUARIO DE VALVERDE 71,40.51157829071127,-3.6938180692699696,1,POINT (4509728.266553815 -411479.083027717),225,Pedro Rico,Calle Pedro Rico nº 4,2,22,-3.688463,40.481086,POINT (4506333.880278716 -410881.7202647889),Colegio+Público+Antonio+Fontan,Pedro+Rico,https://www.google.com/maps/dir/Colegio+Público+Antonio+Fontan/Bicimad+Pedro+Rico
Colegio Público Antonio Machado,5419.609347934054,5087,MADRID,28044,CALLE ALLARIZ 3,40.36742548683976,-3.7541975520390944,1,POINT (4493681.249830415 -418214.7189759262),220,Marqués de Vadillo,Glorieta Marqués de Vadillo nº 9,4,19,-3.716591,40.398247,POINT (4497112.284980891 -414019.4641230708),Colegio+Público+Antonio+Machado,Marqués+de+Vadillo,https://www.google.com/maps/dir/Colegio+Público+Antonio+Machado/Bicimad+Marqués+de+Vadillo
Colegio Público Antonio Moreno Rosales,200.38835371517627,5088,MADRID,28012,CALLE OLMO 4,40.41147059852911,-3.701274799534028,1,POINT (4498584.329235606 -412310.8939578795),47,Jesús y María,Calle Lavapiés nº 34,5,19,-3.7025024,40.4101564,POINT (4498438.033324544 -412447.8355465636),Colegio+Público+Antonio+Moreno+Rosales,Jesús+y+María,https://www.google.com/maps/dir/Colegio+Público+Antonio+Moreno+Rosales/Bicimad+Jesús+y+María
Colegio Público Antonio de Nebrija,4188.4015413986135,5085,MADRID,28021,CALLE JUAN JOSE MARTINEZ SECO 77,40.35186683091612,-3.6861847074521887,1,POINT (4491949.268175568 -410627.5757866193),243,Embajadores 191,Calle Sodio nº 1B,8,16,-3.6903589643353483,40.389258643579105,POINT (4496111.70572105 -411093.2163689993),Colegio+Público+Antonio+de+Nebrija,Embajadores+191,https://www.google.com/maps/dir/Colegio+Público+Antonio+de+Nebrija/Bicimad+Embajadores+191
Colegio Público Aragón,935.5004197648864,5091,MADRID,28038,AVENIDA RAFAEL ALBERTI 2,40.39244393012934,-3.6373799409076795,1,POINT (4496466.290197852 -405183.5395392006),229,Pavones,Calle Hacienda de Pavones nº 342,11,12,-3.634587,40.400368,POINT (4497348.393620864 -404872.003688147),Colegio+Público+Aragón,Pavones,https://www.google.com/maps/dir/Colegio+Público+Aragón/Bicimad+Pavones
Colegio Público Aravaca,6372.656651466712,5092,MADRID,28023,CALLE ESTUDIO 6,40.460576198420775,-3.7857037462052063,1,POINT (4504050.739610645 -421729.5783544914),269,Facultad Derecho,Avenida Complutense nº 23,9,15,-3.72937,40.45109,POINT (4502994.74083288 -415445.0243226733),Colegio+Público+Aravaca,Facultad+Derecho,https://www.google.com/maps/dir/Colegio+Público+Aravaca/Bicimad+Facultad+Derecho
Colegio Público Arcipreste de Hita,1799.9096745032641,5093,MADRID,28025,CALLE ANTONIO MORENO 25,40.38481599116821,-3.725574252110717,1,POINT (4495617.151916897 -415021.5878466305),220,Marqués de Vadillo,Glorieta Marqués de Vadillo nº 9,4,19,-3.716591,40.398247,POINT (4497112.284980891 -414019.4641230708),Colegio+Público+Arcipreste+de+Hita,Marqués+de+Vadillo,https://www.google.com/maps/dir/Colegio+Público+Arcipreste+de+Hita/Bicimad+Marqués+de+Vadillo
Colegio Público Arquitecto Gaudí,1057.1744527615588,5094,MADRID,28016,CALLE ROSA JARDON 10,40.46541828100197,-3.669067772820547,1,POINT (4504589.757777964 -408718.1954251349),262,Pío XII,Avenida Pío XII nº 3,5,18,-3.67712,40.46041,POINT (4504032.238487074 -409616.4103570179),Colegio+Público+Arquitecto+Gaudí,Pío+XII,https://www.google.com/maps/dir/Colegio+Público+Arquitecto+Gaudí/Bicimad+Pío+XII
Colegio Público Asturias,2119.2807233444555,5095,MADRID,28018,CALLE ASTURIANOS 2,40.38310860341996,-3.6426052252549703,1,POINT (4495427.086382175 -405766.3913439774),229,Pavones,Calle Hacienda de Pavones nº 342,11,12,-3.634587,40.400368,POINT (4497348.393620864 -404872.003688147),Colegio+Público+Asturias,Pavones,https://www.google.com/maps/dir/Colegio+Público+Asturias/Bicimad+Pavones
Colegio Público Ausias March,5289.300378147228,5431144,MADRID,28021,CALLE ESTEFANITA 9,40.34439346121857,-3.674746714234173,1,POINT (4491117.336466327 -409351.6727325224),243,Embajadores 191,Calle Sodio nº 1B,8,16,-3.6903589643353483,40.389258643579105,POINT (4496111.70572105 -411093.2163689993),Colegio+Público+Ausias+March,Embajadores+191,https://www.google.com/maps/dir/Colegio+Público+Ausias+March/Bicimad+Embajadores+191
Colegio Público Azorín,5173.436399213045,5098,MADRID,28021,CALLE GODELLA 57,40.342906888165004,-3.6870005154391885,1,POINT (4490951.851910977 -410718.5794309128),243,Embajadores 191,Calle Sodio nº 1B,8,16,-3.6903589643353483,40.389258643579105,POINT (4496111.70572105 -411093.2163689993),Colegio+Público+Azorín,Embajadores+191,https://www.google.com/maps/dir/Colegio+Público+Azorín/Bicimad+Embajadores+191
Colegio Público Barcelona,3427.3505816924985,5099,MADRID,28041,AVENIDA LA VERBENA DE LA PALOMA 14,40.35841023700524,-3.696273094000059,1,POINT (4492677.676809463 -411752.9444351189),221,Glorieta de Cádiz,Calle Antonio López nº 129,12,12,-3.70017,40.38895,POINT (4496077.347674986 -412187.6512511889),Colegio+Público+Barcelona,Glorieta+de+Cádiz,https://www.google.com/maps/dir/Colegio+Público+Barcelona/Bicimad+Glorieta+de+Cádiz
Colegio Público Blas de Lezo,3838.018385228929,7635761,MADRID,28050,CALLE FROMISTA 27,40.511360317811224,-3.6719996242874196,1,POINT (4509704.001921575 -409045.2385094506),225,Pedro Rico,Calle Pedro Rico nº 4,2,22,-3.688463,40.481086,POINT (4506333.880278716 -410881.7202647889),Colegio+Público+Blas+de+Lezo,Pedro+Rico,https://www.google.com/maps/dir/Colegio+Público+Blas+de+Lezo/Bicimad+Pedro+Rico
Colegio Público Blas de Otero,3300.764619099777,5100,MADRID,28031,CALLE PUENTELARRA 34,40.38124773778207,-3.6119692564174404,1,POINT (4495219.93576693 -402349.165160867),229,Pavones,Calle Hacienda de Pavones nº 342,11,12,-3.634587,40.400368,POINT (4497348.393620864 -404872.003688147),Colegio+Público+Blas+de+Otero,Pavones,https://www.google.com/maps/dir/Colegio+Público+Blas+de+Otero/Bicimad+Pavones
Colegio Público Bolivia,2386.428397853959,5101,MADRID,28011,CALLE VILLAVALIENTE 29,40.407634072188344,-3.7498731428601237,1,POINT (4498157.249076938 -417732.2939178002),232,Caramuel,Calle Caramuel nº 51,5,18,-3.728533714316331,40.40913630273305,POINT (4498324.476616229 -415351.7319152079),Colegio+Público+Bolivia,Caramuel,https://www.google.com/maps/dir/Colegio+Público+Bolivia/Bicimad+Caramuel
Colegio Público Bravo Murillo,2875.6952380731736,5102,MADRID,28035,CALLE ISLAS CIES 11,40.48053890145454,-3.718014861516011,1,POINT (4506272.977547221 -414178.3018431453),247,Francos Rodríguez,Calle Francos Rodríguez nº 62,8,15,-3.708002730875242,40.45673408797698,POINT (4503623.037832471 -413061.4121393402),Colegio+Público+Bravo+Murillo,Francos+Rodríguez,https://www.google.com/maps/dir/Colegio+Público+Bravo+Murillo/Bicimad+Francos+Rodríguez
Colegio Público Breogán,1490.7085619073357,5103,MADRID,28029,CALLE GINZO DE LIMIA 2,40.47540952287272,-3.7024232948074007,1,POINT (4505701.977735407 -412439.0111789687),215,Remonta,Calle Azucenas nº 1,4,11,-3.6973333,40.4630277,POINT (4504323.639518123 -411871.2121165185),Colegio+Público+Breogán,Remonta,https://www.google.com/maps/dir/Colegio+Público+Breogán/Bicimad+Remonta
Colegio Público Calderón de la Barca,7824.138677173688,5104,MADRID,28042,CALLE CALDERON 2,40.47070810904175,-3.5840209268472183,1,POINT (4505178.618741735 -399231.8268057972),223,Gutierre de Cetina,Calle Gutierre de Cetina nº 77,13,10,-3.640994,40.429706,POINT (4500614.284841758 -405586.6676448087),Colegio+Público+Calderón+de+la+Barca,Gutierre+de+Cetina,https://www.google.com/maps/dir/Colegio+Público+Calderón+de+la+Barca/Bicimad+Gutierre+de+Cetina
Colegio Público Camilo José Cela,1415.1398946766672,5105,MADRID,28029,CALLE MELCHOR FERNANDEZ ALMAGRO 22,40.477564401619375,-3.700652519727763,1,POINT (4505941.857740207 -412241.477320592),225,Pedro Rico,Calle Pedro Rico nº 4,2,22,-3.688463,40.481086,POINT (4506333.880278716 -410881.7202647889),Colegio+Público+Camilo+José+Cela,Pedro+Rico,https://www.google.com/maps/dir/Colegio+Público+Camilo+José+Cela/Bicimad+Pedro+Rico
Colegio Público Capitán Cortés,3507.7411369122656,5107,MADRID,28025,CALLE MONSEÑOR OSCAR ROMERO 17,40.38091347738878,-3.7428500011276635,1,POINT (4495182.726070157 -416948.8071029203),220,Marqués de Vadillo,Glorieta Marqués de Vadillo nº 9,4,19,-3.716591,40.398247,POINT (4497112.284980891 -414019.4641230708),Colegio+Público+Capitán+Cortés,Marqués+de+Vadillo,https://www.google.com/maps/dir/Colegio+Público+Capitán+Cortés/Bicimad+Marqués+de+Vadillo
Colegio Público Cardenal Herrera Oria,2528.194737035252,5108,MADRID,28034,CALLE FERMIN CABALLERO 68,40.48260881390874,-3.7110758224045726,1,POINT (4506503.399147609 -413404.2253651726),225,Pedro Rico,Calle Pedro Rico nº 4,2,22,-3.688463,40.481086,POINT (4506333.880278716 -410881.7202647889),Colegio+Público+Cardenal+Herrera+Oria,Pedro+Rico,https://www.google.com/maps/dir/Colegio+Público+Cardenal+Herrera+Oria/Bicimad+Pedro+Rico
Colegio Público Carlos Sáinz de los Terreros,1801.027426700501,5110,MADRID,28018,CALLE CARTAMA 1,40.38481313041185,-3.6390280931999377,1,POINT (4495616.833458955 -405367.3815211392),229,Pavones,Calle Hacienda de Pavones nº 342,11,12,-3.634587,40.400368,POINT (4497348.393620864 -404872.003688147),Colegio+Público+Carlos+Sáinz+de+los+Terreros,Pavones,https://www.google.com/maps/dir/Colegio+Público+Carlos+Sáinz+de+los+Terreros/Bicimad+Pavones
Colegio Público Carlos V,264.91304747408594,5111,MADRID,28027,CALLE VIRGEN DEL VAL 3,40.43724098714693,-3.6544038942331123,1,POINT (4501453.075774088 -407082.4805994955),197,Avenida Donostiarra,Calle Virgen de la Alegría nº 18,22,2,-3.6554918,40.4351256,POINT (4501217.591954061 -407203.8325390252),Colegio+Público+Carlos+V,Avenida+Donostiarra,https://www.google.com/maps/dir/Colegio+Público+Carlos+V/Bicimad+Avenida+Donostiarra
Colegio Público Carmen Cabezuelo,1357.0722648710184,5112,MADRID,28037,CALLE CANGAS DE ONIS 7,40.430112607702604,-3.628834506070179,1,POINT (4500659.548204164 -404230.3504399831),223,Gutierre de Cetina,Calle Gutierre de Cetina nº 77,13,10,-3.640994,40.429706,POINT (4500614.284841758 -405586.6676448087),Colegio+Público+Carmen+Cabezuelo,Gutierre+de+Cetina,https://www.google.com/maps/dir/Colegio+Público+Carmen+Cabezuelo/Bicimad+Gutierre+de+Cetina
Colegio Público Carmen Laforet,3971.564979086387,5792204,MADRID,28032,CALLE TITANIO 16,40.400676319677835,-3.598982213500786,1,POINT (4497382.715610403 -400900.5870159582),229,Pavones,Calle Hacienda de Pavones nº 342,11,12,-3.634587,40.400368,POINT (4497348.393620864 -404872.003688147),Colegio+Público+Carmen+Laforet,Pavones,https://www.google.com/maps/dir/Colegio+Público+Carmen+Laforet/Bicimad+Pavones
Colegio Público Cervantes,67.54714034859269,5115,MADRID,28003,CALLE RAIMUNDO FERNANDEZ VILLAVERDE 4,40.446612640189215,-3.7031139484944826,1,POINT (4502496.323418646 -412516.0552252679),149,Glorieta de los Cuatro Caminos,Calle Santa Engracia nº 168,10,8,-3.7036675,40.4463667,POINT (4502468.945482017 -412577.8052435284),Colegio+Público+Cervantes,Glorieta+de+los+Cuatro+Caminos,https://www.google.com/maps/dir/Colegio+Público+Cervantes/Bicimad+Glorieta+de+los+Cuatro+Caminos
Colegio Público Ciudad Pegaso,5174.80324696222,5124,MADRID,28022,AVENIDA SEPTIMA 12,40.44724009402133,-3.5980274884924257,1,POINT (4502566.171259733 -400794.0975560049),223,Gutierre de Cetina,Calle Gutierre de Cetina nº 77,13,10,-3.640994,40.429706,POINT (4500614.284841758 -405586.6676448087),Colegio+Público+Ciudad+Pegaso,Gutierre+de+Cetina,https://www.google.com/maps/dir/Colegio+Público+Ciudad+Pegaso/Bicimad+Gutierre+de+Cetina
Colegio Público Ciudad de Badajoz,6277.747282976473,5116,MADRID,28024,CALLE FRAY JOSE CERDEIRIÑA 51,40.38398261095106,-3.7788988980894436,1,POINT (4495524.380455486 -420970.4125823675),232,Caramuel,Calle Caramuel nº 51,5,18,-3.728533714316331,40.40913630273305,POINT (4498324.476616229 -415351.7319152079),Colegio+Público+Ciudad+de+Badajoz,Caramuel,https://www.google.com/maps/dir/Colegio+Público+Ciudad+de+Badajoz/Bicimad+Caramuel
Colegio Público Ciudad de Córdoba,2956.0633215564503,5117,MADRID,28041,CALLE LILLO 1,40.362519348197296,-3.697610896320262,1,POINT (4493135.100974975 -411902.1784550689),221,Glorieta de Cádiz,Calle Antonio López nº 129,12,12,-3.70017,40.38895,POINT (4496077.347674986 -412187.6512511889),Colegio+Público+Ciudad+de+Córdoba,Glorieta+de+Cádiz,https://www.google.com/maps/dir/Colegio+Público+Ciudad+de+Córdoba/Bicimad+Glorieta+de+Cádiz
Colegio Público Ciudad de Guadalajara,7063.603090606083,5118,MADRID,28042,CALLE BERGANTIN 13,40.458947463149386,-3.5847918554675733,1,POINT (4503869.429629597 -399317.8143978562),223,Gutierre de Cetina,Calle Gutierre de Cetina nº 77,13,10,-3.640994,40.429706,POINT (4500614.284841758 -405586.6676448087),Colegio+Público+Ciudad+de+Guadalajara,Gutierre+de+Cetina,https://www.google.com/maps/dir/Colegio+Público+Ciudad+de+Guadalajara/Bicimad+Gutierre+de+Cetina
Colegio Público Ciudad de Jaén,1825.2118679555028,5119,MADRID,28041,CALLE MADRE ROSA BLANCO 3,40.37258947821977,-3.701248162459656,1,POINT (4494256.102721299 -412307.9225345202),221,Glorieta de Cádiz,Calle Antonio López nº 129,12,12,-3.70017,40.38895,POINT (4496077.347674986 -412187.6512511889),Colegio+Público+Ciudad+de+Jaén,Glorieta+de+Cádiz,https://www.google.com/maps/dir/Colegio+Público+Ciudad+de+Jaén/Bicimad+Glorieta+de+Cádiz
Colegio Público Ciudad de Roma,318.4489044976303,5121,MADRID,28007,CALLE JUAN ESPLANDIU 2,40.41586394930115,-3.665205626185569,1,POINT (4499073.394806426 -408287.381122249),190,Parque Roma,Calle Alcalde Sáinz de Baranda frente al nº 107,12,9,-3.6657777,40.4186666,POINT (4499385.384455094 -408351.1946310046),Colegio+Público+Ciudad+de+Roma,Parque+Roma,https://www.google.com/maps/dir/Colegio+Público+Ciudad+de+Roma/Bicimad+Parque+Roma
Colegio Público Ciudad de Valencia,3763.0969158662338,5122,MADRID,28007,AVENIDA MEDITERRANEO 91,40.385260536182564,-3.604406503967331,1,POINT (4495666.638441529 -401505.6112696991),229,Pavones,Calle Hacienda de Pavones nº 342,11,12,-3.634587,40.400368,POINT (4497348.393620864 -404872.003688147),Colegio+Público+Ciudad+de+Valencia,Pavones,https://www.google.com/maps/dir/Colegio+Público+Ciudad+de+Valencia/Bicimad+Pavones
Colegio Público Ciudad de Zaragoza,6513.363527286996,5123,MADRID,28042,CALLE MANUEL AGUILAR MUÑOZ 1,40.460302151327085,-3.5912198696737083,1,POINT (4504020.232827722 -400034.7830318596),223,Gutierre de Cetina,Calle Gutierre de Cetina nº 77,13,10,-3.640994,40.429706,POINT (4500614.284841758 -405586.6676448087),Colegio+Público+Ciudad+de+Zaragoza,Gutierre+de+Cetina,https://www.google.com/maps/dir/Colegio+Público+Ciudad+de+Zaragoza/Bicimad+Gutierre+de+Cetina
Colegio Público Ciudad de los Ángeles,3735.4002673667223,5120,MADRID,28041,CALLE LA ALEGRIA DE LA HUERTA 6,40.35564559555992,-3.696079786555593,1,POINT (4492369.918331544 -411731.3806945831),221,Glorieta de Cádiz,Calle Antonio López nº 129,12,12,-3.70017,40.38895,POINT (4496077.347674986 -412187.6512511889),Colegio+Público+Ciudad+de+los+Ángeles,Glorieta+de+Cádiz,https://www.google.com/maps/dir/Colegio+Público+Ciudad+de+los+Ángeles/Bicimad+Glorieta+de+Cádiz
Colegio Público Claudio Moyano,256.1067806829495,5125,MADRID,28003,CALLE CEA BERMUDEZ 26,40.43896509232795,-3.708835358862963,1,POINT (4501645.002284912 -413154.2943466752),210,Parque Santander,Calle Santander esquina con Avenida de Filipinas,13,8,-3.7080833,40.4411388,POINT (4501886.978316098 -413070.3998686467),Colegio+Público+Claudio+Moyano,Parque+Santander,https://www.google.com/maps/dir/Colegio+Público+Claudio+Moyano/Bicimad+Parque+Santander
Colegio Público Complejo Escolar Príncipe Felipe,1403.0044338824484,5277,MADRID,28029,AVENIDA MONFORTE DE LEMOS 24,40.480219870681125,-3.7010104732977656,1,POINT (4506237.463203978 -412281.4077974878),225,Pedro Rico,Calle Pedro Rico nº 4,2,22,-3.688463,40.481086,POINT (4506333.880278716 -410881.7202647889),Colegio+Público+Complejo+Escolar+Príncipe+Felipe,Pedro+Rico,https://www.google.com/maps/dir/Colegio+Público+Complejo+Escolar+Príncipe+Felipe/Bicimad+Pedro+Rico
Colegio Público Concepción Arenal,194.7266522771596,5127,MADRID,28019,CALLE ANTONIO LOPEZ 1,40.397503508835996,-3.7150109370450957,1,POINT (4497029.519923105 -413843.2017779239),220,Marqués de Vadillo,Glorieta Marqués de Vadillo nº 9,4,19,-3.716591,40.398247,POINT (4497112.284980891 -414019.4641230708),Colegio+Público+Concepción+Arenal,Marqués+de+Vadillo,https://www.google.com/maps/dir/Colegio+Público+Concepción+Arenal/Bicimad+Marqués+de+Vadillo
Colegio Público Concha Espina,1931.0802039972675,5128,MADRID,28018,CALLE GERARDO DIEGO 6,40.38577682775334,-3.643950119182148,1,POINT (4495724.111756289 -405916.4074312873),229,Pavones,Calle Hacienda de Pavones nº 342,11,12,-3.634587,40.400368,POINT (4497348.393620864 -404872.003688147),Colegio+Público+Concha+Espina,Pavones,https://www.google.com/maps/dir/Colegio+Público+Concha+Espina/Bicimad+Pavones
Colegio Público Conde de Romanones,673.1614668401803,5129,MADRID,28027,CALLE ELFO 143,40.43747986110289,-3.6423326381692056,1,POINT (4501479.667101229 -405735.9856662635),237,C.D. Concepción,Calle Jose del Hierro nº 5,6,17,-3.64835857929032,40.43715089959262,POINT (4501443.047273415 -406408.1503400223),Colegio+Público+Conde+de+Romanones,C.D.+Concepción,https://www.google.com/maps/dir/Colegio+Público+Conde+de+Romanones/Bicimad+C.D.+Concepción
Colegio Público Cortes de Cádiz,3927.0987317894683,6149062,MADRID,28050,AVENIDA NICETO ALCALA ZAMORA 48,40.49893432860617,-3.656017907963137,1,POINT (4508320.747130666 -407262.5180255061),257,Manuel Caldeiro,Paseo de la Castellana nº 298,9,15,-3.68532,40.47938,POINT (4506143.969227422 -410531.1174823334),Colegio+Público+Cortes+de+Cádiz,Manuel+Caldeiro,https://www.google.com/maps/dir/Colegio+Público+Cortes+de+Cádiz/Bicimad+Manuel+Caldeiro
Colegio Público Costa Rica,4037.5970279230414,5131,MADRID,28047,CALLE CAMARENA 247,40.38550403353863,-3.755989664410327,1,POINT (4495693.744443216 -418414.6452332385),232,Caramuel,Calle Caramuel nº 51,5,18,-3.728533714316331,40.40913630273305,POINT (4498324.476616229 -415351.7319152079),Colegio+Público+Costa+Rica,Caramuel,https://www.google.com/maps/dir/Colegio+Público+Costa+Rica/Bicimad+Caramuel
Colegio Público Cristóbal Colón,4346.754164006924,5132,MADRID,28041,CARRETERA CARABANCHEL A VILLAVERDE 109,40.35035079998796,-3.706057974681441,1,POINT (4491780.504384618 -412844.4689582662),221,Glorieta de Cádiz,Calle Antonio López nº 129,12,12,-3.70017,40.38895,POINT (4496077.347674986 -412187.6512511889),Colegio+Público+Cristóbal+Colón,Glorieta+de+Cádiz,https://www.google.com/maps/dir/Colegio+Público+Cristóbal+Colón/Bicimad+Glorieta+de+Cádiz
Colegio Público Cuba,3987.1128332943053,5133,MADRID,28024,CALLE TEMBLEQUE 58,40.39509014363514,-3.761411071256881,1,POINT (4496760.865337848 -419019.4544395463),232,Caramuel,Calle Caramuel nº 51,5,18,-3.728533714316331,40.40913630273305,POINT (4498324.476616229 -415351.7319152079),Colegio+Público+Cuba,Caramuel,https://www.google.com/maps/dir/Colegio+Público+Cuba/Bicimad+Caramuel
Colegio Público Daniel Vázquez Díaz,1056.0474172178435,5135,MADRID,28039,CALLE ARMENTEROS 46,40.464777111936684,-3.7130226942453906,1,POINT (4504518.383164102 -413621.4057862131),247,Francos Rodríguez,Calle Francos Rodríguez nº 62,8,15,-3.708002730875242,40.45673408797698,POINT (4503623.037832471 -413061.4121393402),Colegio+Público+Daniel+Vázquez+Díaz,Francos+Rodríguez,https://www.google.com/maps/dir/Colegio+Público+Daniel+Vázquez+Díaz/Bicimad+Francos+Rodríguez
Colegio Público Dionisio Ridruejo,3637.7639290207635,5136,MADRID,28033,CALLE ZIPAQUIRA 14,40.47301835441678,-3.6345431561438026,1,POINT (4505435.794080491 -404867.1131759514),238,Carlota O’Neill,Calle Carlota O'Neill nº 32,14,10,-3.648958444298144,40.44370542379883,POINT (4502172.693570442 -406475.0626355441),Colegio+Público+Dionisio+Ridruejo,Carlota+O’Neill,https://www.google.com/maps/dir/Colegio+Público+Dionisio+Ridruejo/Bicimad+Carlota+O’Neill
Colegio Público Doctor Conde Arruga,604.2911006434575,5137,MADRID,28030,CALLE HACIENDA DE PAVONES 105,40.40382410472334,-3.643579973780007,1,POINT (4497733.125438794 -405875.1195691592),227,Marroquina,Calle Camino de los Vinateros nº 108,16,6,-3.646697,40.408264,POINT (4498227.372320169 -406222.8087328799),Colegio+Público+Doctor+Conde+Arruga,Marroquina,https://www.google.com/maps/dir/Colegio+Público+Doctor+Conde+Arruga/Bicimad+Marroquina
Colegio Público Doctor Federico Rubio,152.4713275640646,5138,MADRID,28039,AVENIDA DOCTOR FEDERICO RUBIO Y GALI 53,40.45242712056568,-3.7113472292938066,1,POINT (4503143.588413381 -413434.50173228),245,Pablo Iglesias,Calle Francisco Balseiro nº 1,16,5,-3.710525,40.451333,POINT (4503021.791469144 -413342.7792699079),Colegio+Público+Doctor+Federico+Rubio,Pablo+Iglesias,https://www.google.com/maps/dir/Colegio+Público+Doctor+Federico+Rubio/Bicimad+Pablo+Iglesias
Colegio Público Doctor Severo Ochoa,2581.1521447118184,5140,MADRID,28032,CALLE EZCARAY 3,40.410311030784285,-3.6136821061928113,1,POINT (4498455.246744713 -402540.2184157912),229,Pavones,Calle Hacienda de Pavones nº 342,11,12,-3.634587,40.400368,POINT (4497348.393620864 -404872.003688147),Colegio+Público+Doctor+Severo+Ochoa,Pavones,https://www.google.com/maps/dir/Colegio+Público+Doctor+Severo+Ochoa/Bicimad+Pavones
Colegio Público Doctor Tolosa Latour,2205.4263118846598,5141,MADRID,28018,CALLE ASTURIANOS 4,40.38200381255466,-3.642005680937447,1,POINT (4495304.101625617 -405699.5152924902),229,Pavones,Calle Hacienda de Pavones nº 342,11,12,-3.634587,40.400368,POINT (4497348.393620864 -404872.003688147),Colegio+Público+Doctor+Tolosa+Latour,Pavones,https://www.google.com/maps/dir/Colegio+Público+Doctor+Tolosa+Latour/Bicimad+Pavones
Colegio Público Dámaso Alonso,4875.735076568373,5134,MADRID,28021,AVENIDA ESPINELA 1,40.34604471386465,-3.7089567302070083,1,POINT (4491301.15307006 -413167.8336998932),221,Glorieta de Cádiz,Calle Antonio López nº 129,12,12,-3.70017,40.38895,POINT (4496077.347674986 -412187.6512511889),Colegio+Público+Dámaso+Alonso,Glorieta+de+Cádiz,https://www.google.com/maps/dir/Colegio+Público+Dámaso+Alonso/Bicimad+Glorieta+de+Cádiz
Colegio Público EEUU - Huarte de San Juan,1099.3995463237354,5144,MADRID,28008,PASEO COMANDANTE FORTEA 71,40.42870179468233,-3.733708557423035,1,POINT (4500502.497217142 -415929.0164160697),119,Paseo de Moret,Paseo de Moret nº 11,9,12,-3.7246532,40.4325991,POINT (4500936.343260571 -414918.8397121918),Colegio+Público+EEUU+-+Huarte+de+San+Juan,Paseo+de+Moret,https://www.google.com/maps/dir/Colegio+Público+EEUU+-+Huarte+de+San+Juan/Bicimad+Paseo+de+Moret
Colegio Público Eduardo Rojo,793.7275771736478,6024,MADRID,28018,CALLE EDUARDO ROJO 5,40.38742706684719,-3.6628050333334046,1,POINT (4495907.815531904 -408019.6009956209),236,Concordia,Calle Arroyo del Olivar nº 6,2,21,-3.6659362429356372,40.39382977920336,POINT (4496620.562211088 -408368.8797354235),Colegio+Público+Eduardo+Rojo,Concordia,https://www.google.com/maps/dir/Colegio+Público+Eduardo+Rojo/Bicimad+Concordia
Colegio Público El Espinillo,3099.1806796793335,42014,MADRID,28041,CALLE UNANIMIDAD 1,40.36157241219842,-3.6932788501569522,1,POINT (4493029.688541766 -411418.9324906454),243,Embajadores 191,Calle Sodio nº 1B,8,16,-3.6903589643353483,40.389258643579105,POINT (4496111.70572105 -411093.2163689993),Colegio+Público+El+Espinillo,Embajadores+191,https://www.google.com/maps/dir/Colegio+Público+El+Espinillo/Bicimad+Embajadores+191
Colegio Público El Greco,5166.267551065543,176810,MADRID,28021,CALLE ESTEFANITA 7,40.345482201202394,-3.674981279643457,1,POINT (4491238.534446932 -409377.8382350849),243,Embajadores 191,Calle Sodio nº 1B,8,16,-3.6903589643353483,40.389258643579105,POINT (4496111.70572105 -411093.2163689993),Colegio+Público+El+Greco,Embajadores+191,https://www.google.com/maps/dir/Colegio+Público+El+Greco/Bicimad+Embajadores+191
Colegio Público El Madroño,572.5640031769813,5220,MADRID,28038,CALLE LAS MARISMAS 14,40.402204300135466,-3.654488722948694,1,POINT (4497552.809616888 -407091.9429295257),228,Plaza del Encuentro,Calle Arroyo de las Pilillas nº 6,19,4,-3.65122,40.40617,POINT (4497994.269306446 -406727.329599779),Colegio+Público+El+Madroño,Plaza+del+Encuentro,https://www.google.com/maps/dir/Colegio+Público+El+Madroño/Bicimad+Plaza+del+Encuentro
Colegio Público El Quijote,3078.9116280384496,5339,MADRID,28031,CALLE FUENTIDUEÑA 4,40.374905112512465,-3.6238093612915145,1,POINT (4494513.877951626 -403669.8315980885),229,Pavones,Calle Hacienda de Pavones nº 342,11,12,-3.634587,40.400368,POINT (4497348.393620864 -404872.003688147),Colegio+Público+El+Quijote,Pavones,https://www.google.com/maps/dir/Colegio+Público+El+Quijote/Bicimad+Pavones
Colegio Público El Sol,3330.444823195449,64474,MADRID,28022,AVENIDA CANILLEJAS A VICALVARO 82,40.423997382335585,-3.611684586484881,1,POINT (4499978.804430221 -402317.4127806383),223,Gutierre de Cetina,Calle Gutierre de Cetina nº 77,13,10,-3.640994,40.429706,POINT (4500614.284841758 -405586.6676448087),Colegio+Público+El+Sol,Gutierre+de+Cetina,https://www.google.com/maps/dir/Colegio+Público+El+Sol/Bicimad+Gutierre+de+Cetina
Colegio Público Emilia Pardo Bazán,241.4521111391668,5145,MADRID,28005,CALLE VENTORRILLO 14,40.40677803487061,-3.705527696367566,1,POINT (4498061.955438628 -412785.3149606245),50,Ribera de Curtidores,Calle Ribera de Curtidores nº 28,19,1,-3.7071259,40.4053153,POINT (4497899.124537665 -412963.5990588086),Colegio+Público+Emilia+Pardo+Bazán,Ribera+de+Curtidores,https://www.google.com/maps/dir/Colegio+Público+Emilia+Pardo+Bazán/Bicimad+Ribera+de+Curtidores
Colegio Público Ermita del Santo,470.2865125687094,5148,MADRID,28011,PASEO ERMITA DEL SANTO 18,40.41091984789517,-3.7234030687601254,1,POINT (4498523.019955483 -414779.3812681186),231,Ermita Santo,Paseo de la Ermita del Santo nº 48,10,10,-3.7244893989507686,40.406837862773465,POINT (4498068.615450309 -414900.5668678451),Colegio+Público+Ermita+del+Santo,Ermita+Santo,https://www.google.com/maps/dir/Colegio+Público+Ermita+del+Santo/Bicimad+Ermita+Santo
Colegio Público Escuelas Aguirre,140.63588010128603,5149,MADRID,28009,CALLE PIO BAROJA 4,40.41454970248996,-3.674350860475647,1,POINT (4498927.093520627 -409307.5157150596),88,Pío Baroja,Calle Pío Baroja nº 10,15,7,-3.6745323,40.4132995,POINT (4498787.921616057 -409327.7550764651),Colegio+Público+Escuelas+Aguirre,Pío+Baroja,https://www.google.com/maps/dir/Colegio+Público+Escuelas+Aguirre/Bicimad+Pío+Baroja
Colegio Público Escuelas Bosque,564.5788257318676,5150,MADRID,28039,AVENIDA SANTO ANGEL DE LA GUARDA 4,40.45898733981378,-3.712536881730324,1,POINT (4503873.868679572 -413567.2116417196),247,Francos Rodríguez,Calle Francos Rodríguez nº 62,8,15,-3.708002730875242,40.45673408797698,POINT (4503623.037832471 -413061.4121393402),Colegio+Público+Escuelas+Bosque,Francos+Rodríguez,https://www.google.com/maps/dir/Colegio+Público+Escuelas+Bosque/Bicimad+Francos+Rodríguez
Colegio Público Esperanza,2006.0594493611104,5245,MADRID,28043,CALLE ANDORRA 12,40.46144263379954,-3.6457808079102354,1,POINT (4504147.190755815 -406120.6118218533),238,Carlota O’Neill,Calle Carlota O'Neill nº 32,14,10,-3.648958444298144,40.44370542379883,POINT (4502172.693570442 -406475.0626355441),Colegio+Público+Esperanza,Carlota+O’Neill,https://www.google.com/maps/dir/Colegio+Público+Esperanza/Bicimad+Carlota+O’Neill
Colegio Público Eugenio María de Hostos,1761.4127015299134,5152,MADRID,28039,CALLE VALDEVARNES 26,40.469162084516505,-3.7177757178062834,1,POINT (4505006.516078831 -414151.6243420601),247,Francos Rodríguez,Calle Francos Rodríguez nº 62,8,15,-3.708002730875242,40.45673408797698,POINT (4503623.037832471 -413061.4121393402),Colegio+Público+Eugenio+María+de+Hostos,Francos+Rodríguez,https://www.google.com/maps/dir/Colegio+Público+Eugenio+María+de+Hostos/Bicimad+Francos+Rodríguez
Colegio Público Felipe II,1122.2086927975292,5155,MADRID,28029,AVENIDA ASTURIAS 70,40.47290570166502,-3.699341838889918,1,POINT (4505423.253633528 -412095.26824206),215,Remonta,Calle Azucenas nº 1,4,11,-3.6973333,40.4630277,POINT (4504323.639518123 -411871.2121165185),Colegio+Público+Felipe+II,Remonta,https://www.google.com/maps/dir/Colegio+Público+Felipe+II/Bicimad+Remonta
Colegio Público Fernando el Católico,147.7415517511611,5158,MADRID,28015,CALLE FERNANDO EL CATOLICO 16,40.434103689530446,-3.7097392943348284,1,POINT (4501103.833400954 -413255.131221762),168,Fernando el Católico,Calle Fernando el Católico nº 19,6,16,-3.708439,40.4338516,POINT (4501075.770922789 -413110.0792881895),Colegio+Público+Fernando+el+Católico,Fernando+el+Católico,https://www.google.com/maps/dir/Colegio+Público+Fernando+el+Católico/Bicimad+Fernando+el+Católico
Colegio Público Fernández de Moratín,717.076710893469,5156,MADRID,28008,AVENIDA VALLADOLID 2,40.42673321856838,-3.7273094844478685,1,POINT (4500283.356326549 -415215.1622953715),119,Paseo de Moret,Paseo de Moret nº 11,9,12,-3.7246532,40.4325991,POINT (4500936.343260571 -414918.8397121918),Colegio+Público+Fernández+de+Moratín,Paseo+de+Moret,https://www.google.com/maps/dir/Colegio+Público+Fernández+de+Moratín/Bicimad+Paseo+de+Moret
Colegio Público Filósofo Séneca,3604.7753433153366,5159,MADRID,28033,CALLE SANTA ADELA 21,40.478381551999256,-3.6502374703975162,1,POINT (4506032.822504397 -406617.7325041287),262,Pío XII,Avenida Pío XII nº 3,5,18,-3.67712,40.46041,POINT (4504032.238487074 -409616.4103570179),Colegio+Público+Filósofo+Séneca,Pío+XII,https://www.google.com/maps/dir/Colegio+Público+Filósofo+Séneca/Bicimad+Pío+XII
Colegio Público Fontarrón,595.7075301308042,5160,MADRID,28030,CALLE ARROYO FONTARRON 24,40.39511351284605,-3.6335755702199677,1,POINT (4496763.466786507 -404759.1849844509),229,Pavones,Calle Hacienda de Pavones nº 342,11,12,-3.634587,40.400368,POINT (4497348.393620864 -404872.003688147),Colegio+Público+Fontarrón,Pavones,https://www.google.com/maps/dir/Colegio+Público+Fontarrón/Bicimad+Pavones
Colegio Público Francisco Arranz,5380.628144711094,5161,MADRID,28044,CALLE SONDICA 2,40.37492895164089,-3.762609414778231,1,POINT (4494516.531711263 -419153.141500138),232,Caramuel,Calle Caramuel nº 51,5,18,-3.728533714316331,40.40913630273305,POINT (4498324.476616229 -415351.7319152079),Colegio+Público+Francisco+Arranz,Caramuel,https://www.google.com/maps/dir/Colegio+Público+Francisco+Arranz/Bicimad+Caramuel
Colegio Público Francisco Fatóu,3258.313853956437,5165,MADRID,28031,CAMINO SUERTE 23,40.37597903288599,-3.6184358604020184,1,POINT (4494633.426220759 -403070.4595762105),229,Pavones,Calle Hacienda de Pavones nº 342,11,12,-3.634587,40.400368,POINT (4497348.393620864 -404872.003688147),Colegio+Público+Francisco+Fatóu,Pavones,https://www.google.com/maps/dir/Colegio+Público+Francisco+Fatóu/Bicimad+Pavones
Colegio Público Francisco Ruano,1586.038981504765,5166,MADRID,28053,CALLE ALMURADIEL 150,40.380085637390486,-3.673547648504667,1,POINT (4495090.571343089 -409217.9184321422),188,Méndez Álvaro,Calle Retama nº 5,15,9,-3.6758888,40.3941388,POINT (4496654.962248815 -409479.0711555289),Colegio+Público+Francisco+Ruano,Méndez+Álvaro,https://www.google.com/maps/dir/Colegio+Público+Francisco+Ruano/Bicimad+Méndez+Álvaro
Colegio Público Francisco de Goya,243.15175763412697,5162,MADRID,28011,CALLE ANTILLON 23,40.411189612846165,-3.727790340862767,1,POINT (4498553.050052461 -415268.8044680656),232,Caramuel,Calle Caramuel nº 51,5,18,-3.728533714316331,40.40913630273305,POINT (4498324.476616229 -415351.7319152079),Colegio+Público+Francisco+de+Goya,Caramuel,https://www.google.com/maps/dir/Colegio+Público+Francisco+de+Goya/Bicimad+Caramuel
Colegio Público Francisco de Luis,336.7530661815207,5163,MADRID,28030,CALLE CORREGIDOR RODRIGO RODRIGUEZ 5,40.40883801642817,-3.660292565776491,1,POINT (4498291.271536659 -407739.3422947747),226,Camino Vinateros,Calle Camino de los Vinateros nº 28,12,10,-3.65779,40.41053,POINT (4498479.622286306 -407460.1888912669),Colegio+Público+Francisco+de+Luis,Camino+Vinateros,https://www.google.com/maps/dir/Colegio+Público+Francisco+de+Luis/Bicimad+Camino+Vinateros
Colegio Público Francisco de Quevedo,126.55610683040013,5164,MADRID,28007,CALLE GRANADA 16,40.404727692050116,-3.679332106624429,1,POINT (4497833.712319899 -409863.1692460247),83,Puerta de Granada,Avenida de Menéndez Pelayo nº 38,12,12,-3.6803874,40.4051451,POINT (4497880.177960332 -409980.8866722419),Colegio+Público+Francisco+de+Quevedo,Puerta+de+Granada,https://www.google.com/maps/dir/Colegio+Público+Francisco+de+Quevedo/Bicimad+Puerta+de+Granada
Colegio Público Fray Junípero Serra,505.5330399439195,5167,MADRID,28038,CAMINO VALDERRIBAS 120,40.395309545329106,-3.658157243926342,1,POINT (4496785.2890227 -407501.1537565124),234,Sierra Toledana,Camino de Valderribas nº 94,10,14,-3.6607768678037744,40.39901531507069,POINT (4497197.81342333 -407793.364764792),Colegio+Público+Fray+Junípero+Serra,Sierra+Toledana,https://www.google.com/maps/dir/Colegio+Público+Fray+Junípero+Serra/Bicimad+Sierra+Toledana
Colegio Público Gabriela Mistral,3727.77869041903,176824,MADRID,28050,CALLE MIRALLOS 3,40.50774206131332,-3.6675525270094127,1,POINT (4509301.219450669 -408549.1727322087),257,Manuel Caldeiro,Paseo de la Castellana nº 298,9,15,-3.68532,40.47938,POINT (4506143.969227422 -410531.1174823334),Colegio+Público+Gabriela+Mistral,Manuel+Caldeiro,https://www.google.com/maps/dir/Colegio+Público+Gabriela+Mistral/Bicimad+Manuel+Caldeiro
Colegio Público Gandhi,830.9652051304188,5082,MADRID,28017,CALLE GANDHI 10,40.423746261606965,-3.6365082780370956,1,POINT (4499950.849798583 -405086.3106566241),223,Gutierre de Cetina,Calle Gutierre de Cetina nº 77,13,10,-3.640994,40.429706,POINT (4500614.284841758 -405586.6676448087),Colegio+Público+Gandhi,Gutierre+de+Cetina,https://www.google.com/maps/dir/Colegio+Público+Gandhi/Bicimad+Gutierre+de+Cetina
Colegio Público Garcilaso de la Vega,3076.417702686928,5169,MADRID,28043,CALLE TREFACIO 18,40.46699372886275,-3.634108987557183,1,POINT (4504765.135831596 -404818.6843562887),238,Carlota O’Neill,Calle Carlota O'Neill nº 32,14,10,-3.648958444298144,40.44370542379883,POINT (4502172.693570442 -406475.0626355441),Colegio+Público+Garcilaso+de+la+Vega,Carlota+O’Neill,https://www.google.com/maps/dir/Colegio+Público+Garcilaso+de+la+Vega/Bicimad+Carlota+O’Neill
Colegio Público García Morente,2278.5255709487665,5168,MADRID,28053,RONDA SUR 229,40.37336648575158,-3.665482524950977,1,POINT (4494342.598804083 -408318.2685329804),236,Concordia,Calle Arroyo del Olivar nº 6,2,21,-3.6659362429356372,40.39382977920336,POINT (4496620.562211088 -408368.8797354235),Colegio+Público+García+Morente,Concordia,https://www.google.com/maps/dir/Colegio+Público+García+Morente/Bicimad+Concordia
Colegio Público Giner de los Ríos,1616.9256307486664,5171,MADRID,28053,CALLE MEMBEZAR 25,40.379529471156005,-3.6684765035279683,1,POINT (4495028.65920107 -408652.2404632372),236,Concordia,Calle Arroyo del Olivar nº 6,2,21,-3.6659362429356372,40.39382977920336,POINT (4496620.562211088 -408368.8797354235),Colegio+Público+Giner+de+los+Ríos,Concordia,https://www.google.com/maps/dir/Colegio+Público+Giner+de+los+Ríos/Bicimad+Concordia
Colegio Público Gloria Fuertes,2255.252676765645,5172,MADRID,28041,CALLE CENSO 3,40.369311628795366,-3.7051368370067617,1,POINT (4493891.214192478 -412741.7135515799),221,Glorieta de Cádiz,Calle Antonio López nº 129,12,12,-3.70017,40.38895,POINT (4496077.347674986 -412187.6512511889),Colegio+Público+Gloria+Fuertes,Glorieta+de+Cádiz,https://www.google.com/maps/dir/Colegio+Público+Gloria+Fuertes/Bicimad+Glorieta+de+Cádiz
Colegio Público Gonzalo Fernández de Córdoba,5904.14041528848,5174,MADRID,28024,CALLE ADANERO 3,40.39414213700213,-3.7792987452696023,1,POINT (4496655.333722193 -421015.0203629855),232,Caramuel,Calle Caramuel nº 51,5,18,-3.728533714316331,40.40913630273305,POINT (4498324.476616229 -415351.7319152079),Colegio+Público+Gonzalo+Fernández+de+Córdoba,Caramuel,https://www.google.com/maps/dir/Colegio+Público+Gonzalo+Fernández+de+Córdoba/Bicimad+Caramuel
Colegio Público Gonzalo de Berceo,1623.1592725549203,5173,MADRID,28025,AVENIDA ABRANTES 5,40.38471221481113,-3.722003386269505,1,POINT (4495605.599585671 -414623.2398628209),220,Marqués de Vadillo,Glorieta Marqués de Vadillo nº 9,4,19,-3.716591,40.398247,POINT (4497112.284980891 -414019.4641230708),Colegio+Público+Gonzalo+de+Berceo,Marqués+de+Vadillo,https://www.google.com/maps/dir/Colegio+Público+Gonzalo+de+Berceo/Bicimad+Marqués+de+Vadillo
Colegio Público Guindalera,103.18422075091061,5176,MADRID,28028,CALLE BOSTON 3,40.437285997697046,-3.6670202290755864,1,POINT (4501458.086325606 -408489.7960116125),249,Camilo José Cela,Avenida de Camilo José Cela nº 23,8,16,-3.66779,40.4378,POINT (4501515.304800238 -408575.6623587617),Colegio+Público+Guindalera,Camilo+José+Cela,https://www.google.com/maps/dir/Colegio+Público+Guindalera/Bicimad+Camilo+José+Cela
Colegio Público Gustavo Adolfo Bécquer,329.80311446399156,5177,MADRID,28017,CALLE SANTA GENOVEVA 32,40.42401892228641,-3.6490417567786837,1,POINT (4499981.202246578 -406484.3557787761),242,Marqués de Corbera 52,Avenida Marqués de Corbera nº 52,7,17,-3.651034981803642,40.426207143200884,POINT (4500224.793884521 -406706.6915793895),Colegio+Público+Gustavo+Adolfo+Bécquer,Marqués+de+Corbera+52,https://www.google.com/maps/dir/Colegio+Público+Gustavo+Adolfo+Bécquer/Bicimad+Marqués+de+Corbera+52
Colegio Público Haití,3246.758330780944,5178,MADRID,28047,CALLE GUABAIRO 22,40.38607118178492,-3.7463468868792895,1,POINT (4495756.879097197 -417338.9114840334),232,Caramuel,Calle Caramuel nº 51,5,18,-3.728533714316331,40.40913630273305,POINT (4498324.476616229 -415351.7319152079),Colegio+Público+Haití,Caramuel,https://www.google.com/maps/dir/Colegio+Público+Haití/Bicimad+Caramuel
Colegio Público Hermanos Pinzón,4643.52139903896,5179,MADRID,28024,CALLE AZOR 4,40.398581785882875,-3.7688034732056224,1,POINT (4497149.553174898 -419844.1528538938),232,Caramuel,Calle Caramuel nº 51,5,18,-3.728533714316331,40.40913630273305,POINT (4498324.476616229 -415351.7319152079),Colegio+Público+Hermanos+Pinzón,Caramuel,https://www.google.com/maps/dir/Colegio+Público+Hermanos+Pinzón/Bicimad+Caramuel
Colegio Público Hernán Cortés,3230.123898599481,5180,MADRID,28047,CALLE LOS YEBENES 241,40.391183407465824,-3.7512812696024738,1,POINT (4496325.969456816 -417889.3823115547),232,Caramuel,Calle Caramuel nº 51,5,18,-3.728533714316331,40.40913630273305,POINT (4498324.476616229 -415351.7319152079),Colegio+Público+Hernán+Cortés,Caramuel,https://www.google.com/maps/dir/Colegio+Público+Hernán+Cortés/Bicimad+Caramuel
Colegio Público Honduras,2951.877112237802,5182,MADRID,28031,PASEO FEDERICO GARCIA LORCA 19,40.377750319496414,-3.6207727531375826,1,POINT (4494830.60494428 -403331.1212572579),229,Pavones,Calle Hacienda de Pavones nº 342,11,12,-3.634587,40.400368,POINT (4497348.393620864 -404872.003688147),Colegio+Público+Honduras,Pavones,https://www.google.com/maps/dir/Colegio+Público+Honduras/Bicimad+Pavones
Colegio Público Hortaleza,3201.685935952046,31747,MADRID,28043,CALLE VALDETORRES DE JARAMA 1,40.47244065719513,-3.647738240999276,1,POINT (4505371.485119944 -406338.9543870501),238,Carlota O’Neill,Calle Carlota O'Neill nº 32,14,10,-3.648958444298144,40.44370542379883,POINT (4502172.693570442 -406475.0626355441),Colegio+Público+Hortaleza,Carlota+O’Neill,https://www.google.com/maps/dir/Colegio+Público+Hortaleza/Bicimad+Carlota+O’Neill
Colegio Público Infanta Leonor,3293.1994903044433,176840,MADRID,28049,CALLE MONASTERIO DE EL PAULAR 140,40.499669521430285,-3.7114329556023478,1,POINT (4508402.588421481 -413444.0647972435),225,Pedro Rico,Calle Pedro Rico nº 4,2,22,-3.688463,40.481086,POINT (4506333.880278716 -410881.7202647889),Colegio+Público+Infanta+Leonor,Pedro+Rico,https://www.google.com/maps/dir/Colegio+Público+Infanta+Leonor/Bicimad+Pedro+Rico
Colegio Público Isaac Albéniz,987.7896122388271,5184,MADRID,28016,CALLE DRACENA 29,40.46422875441015,-3.6691267410574406,1,POINT (4504457.340283477 -408724.7732218882),262,Pío XII,Avenida Pío XII nº 3,5,18,-3.67712,40.46041,POINT (4504032.238487074 -409616.4103570179),Colegio+Público+Isaac+Albéniz,Pío+XII,https://www.google.com/maps/dir/Colegio+Público+Isaac+Albéniz/Bicimad+Pío+XII
Colegio Público Isaac Peral,2080.300778076727,5185,MADRID,28025,GLORIETA RUFINO NOVALVOS 5,40.38629580500656,-3.7309272123026656,1,POINT (4495781.884039851 -415618.7404166941),220,Marqués de Vadillo,Glorieta Marqués de Vadillo nº 9,4,19,-3.716591,40.398247,POINT (4497112.284980891 -414019.4641230708),Colegio+Público+Isaac+Peral,Marqués+de+Vadillo,https://www.google.com/maps/dir/Colegio+Público+Isaac+Peral/Bicimad+Marqués+de+Vadillo
Colegio Público Isabel la Católica,78.21756507546027,5186,MADRID,28004,CALLE BARCELO 2,40.426642215368176,-3.699722994908341,1,POINT (4500273.225896643 -412137.7869387466),58,Barceló,Calle Barceló nº 7,17,2,-3.700423,40.4266828,POINT (4500277.743757191 -412215.8739185985),Colegio+Público+Isabel+la+Católica,Barceló,https://www.google.com/maps/dir/Colegio+Público+Isabel+la+Católica/Bicimad+Barceló
Colegio Público Jaime Balmes,851.4809763964519,5190,MADRID,28053,CALLE SIERRA DE LA SOLANA 2,40.3879037093727,-3.6707625153722523,1,POINT (4495960.875135134 -408907.2409663684),236,Concordia,Calle Arroyo del Olivar nº 6,2,21,-3.6659362429356372,40.39382977920336,POINT (4496620.562211088 -408368.8797354235),Colegio+Público+Jaime+Balmes,Concordia,https://www.google.com/maps/dir/Colegio+Público+Jaime+Balmes/Bicimad+Concordia
Colegio Público Jaime Vera,119.02399567869811,5191,MADRID,28020,CALLE BRAVO MURILLO 162,40.45247841346628,-3.702962807620527,1,POINT (4503149.298312957 -412499.1950994805),213,Estrecho,Calle Navarra nº 1,2,20,-3.7032777,40.4535,POINT (4503263.020805692 -412534.3221003983),Colegio+Público+Jaime+Vera,Estrecho,https://www.google.com/maps/dir/Colegio+Público+Jaime+Vera/Bicimad+Estrecho
Colegio Público Javier de Miguel,1293.4742436108252,5192,MADRID,28018,CALLE JAVIER DE MIGUEL 90,40.38617971853788,-3.657208307609012,1,POINT (4495768.96135327 -407395.3030317946),236,Concordia,Calle Arroyo del Olivar nº 6,2,21,-3.6659362429356372,40.39382977920336,POINT (4496620.562211088 -408368.8797354235),Colegio+Público+Javier+de+Miguel,Concordia,https://www.google.com/maps/dir/Colegio+Público+Javier+de+Miguel/Bicimad+Concordia
Colegio Público Joaquín Costa,377.55155863257926,5193,MADRID,28005,PASEO PONTONES 8,40.40555135378083,-3.7145657673590473,1,POINT (4497925.401924348 -413793.5413751192),244,Paseo Imperial,Paseo Imperial nº 20,11,12,-3.7172213778842007,40.40765396169372,POINT (4498159.463166549 -414089.7853865778),Colegio+Público+Joaquín+Costa,Paseo+Imperial,https://www.google.com/maps/dir/Colegio+Público+Joaquín+Costa/Bicimad+Paseo+Imperial
Colegio Público Joaquín Dicenta,1165.9198913869375,5194,MADRID,28011,PASEO OLIVOS 70,40.40563593391012,-3.7383841619985705,1,POINT (4497934.817341271 -416450.610817804),232,Caramuel,Calle Caramuel nº 51,5,18,-3.728533714316331,40.40913630273305,POINT (4498324.476616229 -415351.7319152079),Colegio+Público+Joaquín+Dicenta,Caramuel,https://www.google.com/maps/dir/Colegio+Público+Joaquín+Dicenta/Bicimad+Caramuel
Colegio Público Joaquín Turina,2123.1470443631533,6025,MADRID,28033,CALLE ARTURO SORIA 332,40.480641242461274,-3.66632834447267,1,POINT (4506284.370095978 -408412.6177848832),257,Manuel Caldeiro,Paseo de la Castellana nº 298,9,15,-3.68532,40.47938,POINT (4506143.969227422 -410531.1174823334),Colegio+Público+Joaquín+Turina,Manuel+Caldeiro,https://www.google.com/maps/dir/Colegio+Público+Joaquín+Turina/Bicimad+Manuel+Caldeiro
Colegio Público Jorge Guillén,1791.6291464722306,5195,MADRID,28029,AVENIDA EL FERROL 47,40.47531422517472,-3.7077074438048214,1,POINT (4505691.369244192 -413028.4719814222),215,Remonta,Calle Azucenas nº 1,4,11,-3.6973333,40.4630277,POINT (4504323.639518123 -411871.2121165185),Colegio+Público+Jorge+Guillén,Remonta,https://www.google.com/maps/dir/Colegio+Público+Jorge+Guillén/Bicimad+Remonta
Colegio Público Jorge Manrique,747.7660121205145,5196,MADRID,28026,PLAZA PINTOR LUCAS 17,40.38810858515369,-3.710375518289677,1,POINT (4495983.681802749 -413326.1040880405),235,San Delfín,Calle San Delfín nº 9,3,21,-3.7080429728445563,40.39440607959559,POINT (4496684.715677296 -413065.9012525062),Colegio+Público+Jorge+Manrique,San+Delfín,https://www.google.com/maps/dir/Colegio+Público+Jorge+Manrique/Bicimad+San+Delfín
Colegio Público Josep Tarradellas,3764.0869200431853,5430866,MADRID,28050,CALLE TRIACASTELA 1,40.50973426099199,-3.670452271301756,1,POINT (4509522.990104456 -408872.6337609162),257,Manuel Caldeiro,Paseo de la Castellana nº 298,9,15,-3.68532,40.47938,POINT (4506143.969227422 -410531.1174823334),Colegio+Público+Josep+Tarradellas,Manuel+Caldeiro,https://www.google.com/maps/dir/Colegio+Público+Josep+Tarradellas/Bicimad+Manuel+Caldeiro
Colegio Público José Bergamín,1815.0663802991685,5197,MADRID,28034,CALLE BRAILLE 19,40.495510999757265,-3.6960480794830053,1,POINT (4507939.663906387 -411727.8437226811),225,Pedro Rico,Calle Pedro Rico nº 4,2,22,-3.688463,40.481086,POINT (4506333.880278716 -410881.7202647889),Colegio+Público+José+Bergamín,Pedro+Rico,https://www.google.com/maps/dir/Colegio+Público+José+Bergamín/Bicimad+Pedro+Rico
Colegio Público José Calvo Sotelo,70.93320407186157,5198,MADRID,28007,AVENIDA CIUDAD DE BARCELONA 83,40.4008413126834,-3.6737662524006756,1,POINT (4497401.082547765 -409242.3034132036),82,Pedro Bosch,Calle Cerro de la Plata nº 2,19,4,-3.6744,40.400789,POINT (4497395.259126488 -409312.9971696784),Colegio+Público+José+Calvo+Sotelo,Pedro+Bosch,https://www.google.com/maps/dir/Colegio+Público+José+Calvo+Sotelo/Bicimad+Pedro+Bosch
Colegio Público José María de Pereda,1374.2687730359116,5200,MADRID,28053,CALLE MESTANZA 94,40.381834618749636,-3.6748845263872902,1,POINT (4495285.267057396 -409367.0455194183),188,Méndez Álvaro,Calle Retama nº 5,15,9,-3.6758888,40.3941388,POINT (4496654.962248815 -409479.0711555289),Colegio+Público+José+María+de+Pereda,Méndez+Álvaro,https://www.google.com/maps/dir/Colegio+Público+José+María+de+Pereda/Bicimad+Méndez+Álvaro
Colegio Público José Ortega y Gasset,383.8008773578655,5201,MADRID,28020,CALLE ORENSE 87,40.461603417432755,-3.6942000296394557,1,POINT (4504165.089107992 -411521.6911859465),215,Remonta,Calle Azucenas nº 1,4,11,-3.6973333,40.4630277,POINT (4504323.639518123 -411871.2121165185),Colegio+Público+José+Ortega+y+Gasset,Remonta,https://www.google.com/maps/dir/Colegio+Público+José+Ortega+y+Gasset/Bicimad+Remonta
Colegio Público José de Echegaray,4218.226594150226,6518289,MADRID,28051,CALLE PUENTEDEY 14,40.368261154491805,-3.614501949365195,1,POINT (4493774.275927913 -402631.6648038403),229,Pavones,Calle Hacienda de Pavones nº 342,11,12,-3.634587,40.400368,POINT (4497348.393620864 -404872.003688147),Colegio+Público+José+de+Echegaray,Pavones,https://www.google.com/maps/dir/Colegio+Público+José+de+Echegaray/Bicimad+Pavones
Colegio Público Jovellanos,6927.774621509151,5202,MADRID,28044,CALLE MONROY 34,40.379270096494,-3.783014879023733,1,POINT (4494999.785745771 -421429.6009350468),232,Caramuel,Calle Caramuel nº 51,5,18,-3.728533714316331,40.40913630273305,POINT (4498324.476616229 -415351.7319152079),Colegio+Público+Jovellanos,Caramuel,https://www.google.com/maps/dir/Colegio+Público+Jovellanos/Bicimad+Caramuel
Colegio Público Juan Gris,3637.4061545849336,5204,MADRID,28031,CALLE MUELA DE SAN JUAN 31,40.372633463040025,-3.6173451376298167,1,POINT (4494260.999089092 -402948.7984108561),229,Pavones,Calle Hacienda de Pavones nº 342,11,12,-3.634587,40.400368,POINT (4497348.393620864 -404872.003688147),Colegio+Público+Juan+Gris,Pavones,https://www.google.com/maps/dir/Colegio+Público+Juan+Gris/Bicimad+Pavones
Colegio Público Juan Ramón Jiménez,550.02745540171,5205,MADRID,28039,CALLE MARQUES DE VIANA 58,40.46327856245691,-3.7032287227178435,1,POINT (4504351.565399086 -412528.8585661702),214,Metro Tetuán,Calle Marqués de Viana nº 3,3,18,-3.6989925,40.4607502,POINT (4504070.109377841 -412056.2988241261),Colegio+Público+Juan+Ramón+Jiménez,Metro+Tetuán,https://www.google.com/maps/dir/Colegio+Público+Juan+Ramón+Jiménez/Bicimad+Metro+Tetuán
Colegio Público Juan Sebastián Elcano,383.95960162382937,5206,MADRID,28026,CALLE MIRASIERRA 29,40.38904382319174,-3.704765272620041,1,POINT (4496087.792024916 -412700.2645664566),230,Antonio López,Calle Eugenio Caxes frente al nº 12,17,7,-3.7026789,40.3917871,POINT (4496393.172202316 -412467.5245335224),Colegio+Público+Juan+Sebastián+Elcano,Antonio+López,https://www.google.com/maps/dir/Colegio+Público+Juan+Sebastián+Elcano/Bicimad+Antonio+López
Colegio Público Juan Zaragüeta,3742.6398015658788,5207,MADRID,28033,CALLE VIA DE LOS POBLADOS 19,40.47210978701385,-3.631007402473766,1,POINT (4505334.652819845 -404472.7224073652),238,Carlota O’Neill,Calle Carlota O'Neill nº 32,14,10,-3.648958444298144,40.44370542379883,POINT (4502172.693570442 -406475.0626355441),Colegio+Público+Juan+Zaragüeta,Carlota+O’Neill,https://www.google.com/maps/dir/Colegio+Público+Juan+Zaragüeta/Bicimad+Carlota+O’Neill
Colegio Público Juan de la Cierva,3876.4549426683798,5203,MADRID,28041,CALLE VILLARROSA 7,40.354436009188994,-3.690461923731924,1,POINT (4492235.267792662 -411104.7015722573),243,Embajadores 191,Calle Sodio nº 1B,8,16,-3.6903589643353483,40.389258643579105,POINT (4496111.70572105 -411093.2163689993),Colegio+Público+Juan+de+la+Cierva,Embajadores+191,https://www.google.com/maps/dir/Colegio+Público+Juan+de+la+Cierva/Bicimad+Embajadores+191
Colegio Público Julián Besteiro,2348.7332255043293,5208,MADRID,28025,AVENIDA ABRANTES 79,40.38059274136839,-3.7281206806824976,1,POINT (4495147.021899688 -415305.6557053195),220,Marqués de Vadillo,Glorieta Marqués de Vadillo nº 9,4,19,-3.716591,40.398247,POINT (4497112.284980891 -414019.4641230708),Colegio+Público+Julián+Besteiro,Marqués+de+Vadillo,https://www.google.com/maps/dir/Colegio+Público+Julián+Besteiro/Bicimad+Marqués+de+Vadillo
Colegio Público Julián Marías,4294.62289616082,176859,MADRID,28022,CALLE BUDAPEST 11,40.42714432750662,-3.6025767698118516,1,POINT (4500329.120764215 -401301.5226917053),223,Gutierre de Cetina,Calle Gutierre de Cetina nº 77,13,10,-3.640994,40.429706,POINT (4500614.284841758 -405586.6676448087),Colegio+Público+Julián+Marías,Gutierre+de+Cetina,https://www.google.com/maps/dir/Colegio+Público+Julián+Marías/Bicimad+Gutierre+de+Cetina
Colegio Público La Alameda,3737.422301551575,5153,MADRID,28022,CALLE MUSAS 9,40.43753723503757,-3.6084115811852313,1,POINT (4501486.053938421 -401952.3390820288),223,Gutierre de Cetina,Calle Gutierre de Cetina nº 77,13,10,-3.640994,40.429706,POINT (4500614.284841758 -405586.6676448087),Colegio+Público+La+Alameda,Gutierre+de+Cetina,https://www.google.com/maps/dir/Colegio+Público+La+Alameda/Bicimad+Gutierre+de+Cetina
Colegio Público La Dehesa del Príncipe,7996.76327834091,6023,MADRID,28024,PASEO LANCEROS 4,40.37977209501616,-3.7939529685128695,1,POINT (4495055.667965637 -422649.8901031094),232,Caramuel,Calle Caramuel nº 51,5,18,-3.728533714316331,40.40913630273305,POINT (4498324.476616229 -415351.7319152079),Colegio+Público+La+Dehesa+del+Príncipe,Caramuel,https://www.google.com/maps/dir/Colegio+Público+La+Dehesa+del+Príncipe/Bicimad+Caramuel
Colegio Público La Latina,4363.44476272609,5210,MADRID,28024,CALLE MAQUEDA 130,40.388887867589375,-3.7620245761086015,1,POINT (4496070.431126674 -419087.8969448041),232,Caramuel,Calle Caramuel nº 51,5,18,-3.728533714316331,40.40913630273305,POINT (4498324.476616229 -415351.7319152079),Colegio+Público+La+Latina,Caramuel,https://www.google.com/maps/dir/Colegio+Público+La+Latina/Bicimad+Caramuel
Colegio Público La Rioja,1386.8348116044997,5294,MADRID,28038,CALLE LEON FELIPE 3,40.388148628884075,-3.637009550808539,1,POINT (4495988.139450425 -405142.2246837846),229,Pavones,Calle Hacienda de Pavones nº 342,11,12,-3.634587,40.400368,POINT (4497348.393620864 -404872.003688147),Colegio+Público+La+Rioja,Pavones,https://www.google.com/maps/dir/Colegio+Público+La+Rioja/Bicimad+Pavones
Colegio Público Legado Crespo,121.57465038565786,5211,MADRID,28005,PASEO ACACIAS 2,40.404805864280796,-3.7039161461158803,1,POINT (4497842.414412812 -412605.5423357426),51,Embajadores 1,Glorieta de Embajadores nº 6,15,1,-3.7028265,40.4047851,POINT (4497840.102943647 -412483.9896610428),Colegio+Público+Legado+Crespo,Embajadores+1,https://www.google.com/maps/dir/Colegio+Público+Legado+Crespo/Bicimad+Embajadores+1
Colegio Público Leopoldo Alas,350.7970904311866,5212,MADRID,28017,CALLE PEDREZUELA 18,40.42824645764569,-3.6534325307123314,1,POINT (4500451.809330084 -406974.1286488672),242,Marqués de Corbera 52,Avenida Marqués de Corbera nº 52,7,17,-3.651034981803642,40.426207143200884,POINT (4500224.793884521 -406706.6915793895),Colegio+Público+Leopoldo+Alas,Marqués+de+Corbera+52,https://www.google.com/maps/dir/Colegio+Público+Leopoldo+Alas/Bicimad+Marqués+de+Corbera+52
Colegio Público Leopoldo Calvo Sotelo,2644.234275542206,4974266,MADRID,28050,CALLE CASTIELLO DE JACA 2,40.50083316755261,-3.675143321637599,1,POINT (4508532.124915281 -409395.9138378283),257,Manuel Caldeiro,Paseo de la Castellana nº 298,9,15,-3.68532,40.47938,POINT (4506143.969227422 -410531.1174823334),Colegio+Público+Leopoldo+Calvo+Sotelo,Manuel+Caldeiro,https://www.google.com/maps/dir/Colegio+Público+Leopoldo+Calvo+Sotelo/Bicimad+Manuel+Caldeiro
Colegio Público Lepanto,1953.2797897808086,5213,MADRID,28035,CALLE VALDERREY 9,40.46843902268448,-3.7210473028721722,1,POINT (4504926.025203878 -414516.5842415738),247,Francos Rodríguez,Calle Francos Rodríguez nº 62,8,15,-3.708002730875242,40.45673408797698,POINT (4503623.037832471 -413061.4121393402),Colegio+Público+Lepanto,Francos+Rodríguez,https://www.google.com/maps/dir/Colegio+Público+Lepanto/Bicimad+Francos+Rodríguez
Colegio Público Lope de Vega,845.2945381922733,5214,MADRID,28019,CALLE INGLATERRA 8,40.39460546257796,-3.7232402248952865,1,POINT (4496706.910889365 -414761.2152283728),220,Marqués de Vadillo,Glorieta Marqués de Vadillo nº 9,4,19,-3.716591,40.398247,POINT (4497112.284980891 -414019.4641230708),Colegio+Público+Lope+de+Vega,Marqués+de+Vadillo,https://www.google.com/maps/dir/Colegio+Público+Lope+de+Vega/Bicimad+Marqués+de+Vadillo
Colegio Público Lorenzo Luzuriaga,1591.7634377225793,5215,MADRID,28034,CALLE VALENCIA DE DON JUAN 13,40.48664862656937,-3.7016083209102453,1,POINT (4506953.109035891 -412348.0989975715),225,Pedro Rico,Calle Pedro Rico nº 4,2,22,-3.688463,40.481086,POINT (4506333.880278716 -410881.7202647889),Colegio+Público+Lorenzo+Luzuriaga,Pedro+Rico,https://www.google.com/maps/dir/Colegio+Público+Lorenzo+Luzuriaga/Bicimad+Pedro+Rico
Colegio Público Los Almendros,1082.7144193100312,64457,MADRID,28032,CALLE LADERA DE LOS ALMENDROS 45,40.39629114218003,-3.625774203881319,1,POINT (4496894.559884309 -403888.9953192372),229,Pavones,Calle Hacienda de Pavones nº 342,11,12,-3.634587,40.400368,POINT (4497348.393620864 -404872.003688147),Colegio+Público+Los+Almendros,Pavones,https://www.google.com/maps/dir/Colegio+Público+Los+Almendros/Bicimad+Pavones
Colegio Público Los Rosales,4402.562118723822,5296,MADRID,28021,AVENIDA LOS ROSALES 131,40.35175390495651,-3.677834634453844,1,POINT (4491936.697315248 -409696.1272448895),243,Embajadores 191,Calle Sodio nº 1B,8,16,-3.6903589643353483,40.389258643579105,POINT (4496111.70572105 -411093.2163689993),Colegio+Público+Los+Rosales,Embajadores+191,https://www.google.com/maps/dir/Colegio+Público+Los+Rosales/Bicimad+Embajadores+191
Colegio Público Loyola de Palacio,5983.498610684637,4974277,MADRID,28051,CALLE EMBALSE DE NAVACERRADA 60,40.36064250120841,-3.5984510871197415,1,POINT (4492926.171323876 -400841.3454813413),229,Pavones,Calle Hacienda de Pavones nº 342,11,12,-3.634587,40.400368,POINT (4497348.393620864 -404872.003688147),Colegio+Público+Loyola+de+Palacio,Pavones,https://www.google.com/maps/dir/Colegio+Público+Loyola+de+Palacio/Bicimad+Pavones
Colegio Público Luis Bello,184.9293595718927,5216,MADRID,28002,CALLE LUIS CABRERA 66,40.44368060148635,-3.6735452726272593,1,POINT (4502169.930363256 -409217.6534061314),204,Prosperidad,Calle Suero de Quiñones nº 2,6,15,-3.6751388,40.4441388,POINT (4502220.936788478 -409395.4094541799),Colegio+Público+Luis+Bello,Prosperidad,https://www.google.com/maps/dir/Colegio+Público+Luis+Bello/Bicimad+Prosperidad
Colegio Público Luis Cernuda,2039.0570646904598,5217,MADRID,28043,CALLE CARRIL DEL CONDE 64,40.46131540437997,-3.6539887453598747,1,POINT (4504133.027641614 -407036.1722883468),238,Carlota O’Neill,Calle Carlota O'Neill nº 32,14,10,-3.648958444298144,40.44370542379883,POINT (4502172.693570442 -406475.0626355441),Colegio+Público+Luis+Cernuda,Carlota+O’Neill,https://www.google.com/maps/dir/Colegio+Público+Luis+Cernuda/Bicimad+Carlota+O’Neill
Colegio Público Luis de Góngora,2113.170504388948,5218,MADRID,28029,CALLE SARRIA 49,40.47459730345878,-3.714412445984112,1,POINT (4505611.561883835 -413776.4377876664),247,Francos Rodríguez,Calle Francos Rodríguez nº 62,8,15,-3.708002730875242,40.45673408797698,POINT (4503623.037832471 -413061.4121393402),Colegio+Público+Luis+de+Góngora,Francos+Rodríguez,https://www.google.com/maps/dir/Colegio+Público+Luis+de+Góngora/Bicimad+Francos+Rodríguez
Colegio Público Madrid Sur,2254.6222156690224,42017,MADRID,28018,CALLE PUERTO DE BALBARAN 133,40.37657755418934,-3.6553480036748622,1,POINT (4494700.053307476 -407187.7925724515),236,Concordia,Calle Arroyo del Olivar nº 6,2,21,-3.6659362429356372,40.39382977920336,POINT (4496620.562211088 -408368.8797354235),Colegio+Público+Madrid+Sur,Concordia,https://www.google.com/maps/dir/Colegio+Público+Madrid+Sur/Bicimad+Concordia
Colegio Público Maestro Padilla,5244.204657720235,5792191,MADRID,28054,AVENIDA PESETA 112,40.3626409159049,-3.747372159760245,1,POINT (4493148.633830283 -417453.2888198681),220,Marqués de Vadillo,Glorieta Marqués de Vadillo nº 9,4,19,-3.716591,40.398247,POINT (4497112.284980891 -414019.4641230708),Colegio+Público+Maestro+Padilla,Marqués+de+Vadillo,https://www.google.com/maps/dir/Colegio+Público+Maestro+Padilla/Bicimad+Marqués+de+Vadillo
Colegio Público Manuel Bartolomé Cossío,5725.863329473751,5221,MADRID,28044,CALLE JOSE DE CADALSO 19,40.38135498597348,-3.7717294965452615,1,POINT (4495231.874580987 -420170.5827657145),232,Caramuel,Calle Caramuel nº 51,5,18,-3.728533714316331,40.40913630273305,POINT (4498324.476616229 -415351.7319152079),Colegio+Público+Manuel+Bartolomé+Cossío,Caramuel,https://www.google.com/maps/dir/Colegio+Público+Manuel+Bartolomé+Cossío/Bicimad+Caramuel
Colegio Público Manuel Núñez de Arenas,2120.206685099238,5223,MADRID,28053,CALLE MARTOS 120,40.37525283072323,-3.661743346960403,1,POINT (4494552.585765787 -407901.1727660273),236,Concordia,Calle Arroyo del Olivar nº 6,2,21,-3.6659362429356372,40.39382977920336,POINT (4496620.562211088 -408368.8797354235),Colegio+Público+Manuel+Núñez+de+Arenas,Concordia,https://www.google.com/maps/dir/Colegio+Público+Manuel+Núñez+de+Arenas/Bicimad+Concordia
Colegio Público Manuel Sáinz de Vicuña,388.85657744711807,5224,MADRID,28030,CALLE CAMINO DE LOS VINATEROS 104,40.4094369606419,-3.6499859326517705,1,POINT (4498357.945701545 -406589.6745327748),228,Plaza del Encuentro,Calle Arroyo de las Pilillas nº 6,19,4,-3.65122,40.40617,POINT (4497994.269306446 -406727.329599779),Colegio+Público+Manuel+Sáinz+de+Vicuña,Plaza+del+Encuentro,https://www.google.com/maps/dir/Colegio+Público+Manuel+Sáinz+de+Vicuña/Bicimad+Plaza+del+Encuentro
Colegio Público Manuel de Falla,4789.95730501057,5222,MADRID,28021,CALLE JOSE ORTU&amp;Ntilde;O PONCE 2,40.34625498819677,-3.705508952749143,1,POINT (4491324.560701638 -412783.224059324),221,Glorieta de Cádiz,Calle Antonio López nº 129,12,12,-3.70017,40.38895,POINT (4496077.347674986 -412187.6512511889),Colegio+Público+Manuel+de+Falla,Glorieta+de+Cádiz,https://www.google.com/maps/dir/Colegio+Público+Manuel+de+Falla/Bicimad+Glorieta+de+Cádiz
Colegio Público Marcelo Usera,209.27037082254984,5226,MADRID,28026,CALLE PERALES DE TAJUÑA 1,40.3871562007155,-3.699608733660164,1,POINT (4495877.662852051 -412125.0408719106),221,Glorieta de Cádiz,Calle Antonio López nº 129,12,12,-3.70017,40.38895,POINT (4496077.347674986 -412187.6512511889),Colegio+Público+Marcelo+Usera,Glorieta+de+Cádiz,https://www.google.com/maps/dir/Colegio+Público+Marcelo+Usera/Bicimad+Glorieta+de+Cádiz
Colegio Público Margaret Thatcher,7173.433061172259,7048498,MADRID,28042,GLORIETA PLAYA DE SAN LORENZO 4,40.47047719759706,-3.5904597549954724,1,POINT (4505152.913797295 -399950.0010049861),238,Carlota O’Neill,Calle Carlota O'Neill nº 32,14,10,-3.648958444298144,40.44370542379883,POINT (4502172.693570442 -406475.0626355441),Colegio+Público+Margaret+Thatcher,Carlota+O’Neill,https://www.google.com/maps/dir/Colegio+Público+Margaret+Thatcher/Bicimad+Carlota+O’Neill
Colegio Público Mariano José de Larra,3573.026414810027,5228,MADRID,28022,CALLE LONGARES 11,40.43061532814977,-3.6089740337850564,1,POINT (4500715.510788354 -402015.075413231),223,Gutierre de Cetina,Calle Gutierre de Cetina nº 77,13,10,-3.640994,40.429706,POINT (4500614.284841758 -405586.6676448087),Colegio+Público+Mariano+José+de+Larra,Gutierre+de+Cetina,https://www.google.com/maps/dir/Colegio+Público+Mariano+José+de+Larra/Bicimad+Gutierre+de+Cetina
Colegio Público Marqués de Marcenado,473.37462691558505,5230,MADRID,28005,CALLE LINNEO 31,40.410370492110424,-3.72048608485198,1,POINT (4498461.86594926 -414453.9777731209),244,Paseo Imperial,Paseo Imperial nº 20,11,12,-3.7172213778842007,40.40765396169372,POINT (4498159.463166549 -414089.7853865778),Colegio+Público+Marqués+de+Marcenado,Paseo+Imperial,https://www.google.com/maps/dir/Colegio+Público+Marqués+de+Marcenado/Bicimad+Paseo+Imperial
Colegio Público Marqués de Suanzes,2362.5209106374914,5231,MADRID,28027,AVENIDA VEINTICINCO DE SEPTIEMBRE 1,40.44309078731439,-3.6245571705517694,1,POINT (4502104.272549972 -403753.2441578392),223,Gutierre de Cetina,Calle Gutierre de Cetina nº 77,13,10,-3.640994,40.429706,POINT (4500614.284841758 -405586.6676448087),Colegio+Público+Marqués+de+Suanzes,Gutierre+de+Cetina,https://www.google.com/maps/dir/Colegio+Público+Marqués+de+Suanzes/Bicimad+Gutierre+de+Cetina
Colegio Público Martínez Montañés,187.87579514545212,5232,MADRID,28030,CALLE HACIENDA DE PAVONES 223,40.40191354205018,-3.6339103602187524,1,POINT (4497520.442574889 -404796.528713353),229,Pavones,Calle Hacienda de Pavones nº 342,11,12,-3.634587,40.400368,POINT (4497348.393620864 -404872.003688147),Colegio+Público+Martínez+Montañés,Pavones,https://www.google.com/maps/dir/Colegio+Público+Martínez+Montañés/Bicimad+Pavones
Colegio Público María Moliner,2580.149918296601,5209,MADRID,28037,CALLE ARCOS DE JALON 34,40.42217402076163,-3.619118046203692,1,POINT (4499775.828748276 -403146.5518729263),223,Gutierre de Cetina,Calle Gutierre de Cetina nº 77,13,10,-3.640994,40.429706,POINT (4500614.284841758 -405586.6676448087),Colegio+Público+María+Moliner,Gutierre+de+Cetina,https://www.google.com/maps/dir/Colegio+Público+María+Moliner/Bicimad+Gutierre+de+Cetina
Colegio Público María de Villota,2953.753781684797,11121459,MADRID,28031,CALLE ENRIQUE GARCIA ALVAREZ 11,40.38235733881085,-3.6151408497888227,1,POINT (4495343.455988438 -402702.9286565032),229,Pavones,Calle Hacienda de Pavones nº 342,11,12,-3.634587,40.400368,POINT (4497348.393620864 -404872.003688147),Colegio+Público+María+de+Villota,Pavones,https://www.google.com/maps/dir/Colegio+Público+María+de+Villota/Bicimad+Pavones
Colegio Público Menéndez Pelayo,256.1708782423962,5235,MADRID,28045,CALLE MENDEZ ALVARO 16,40.40557510310644,-3.691396695437019,1,POINT (4497928.045687181 -411208.9761665377),85,Atocha B,Paseo de la Infanta Isabel nº 3,27,0,-3.6901234,40.4074902,POINT (4498141.233298192 -411066.93898348),Colegio+Público+Menéndez+Pelayo,Atocha+B,https://www.google.com/maps/dir/Colegio+Público+Menéndez+Pelayo/Bicimad+Atocha+B
Colegio Público Menéndez Pidal,733.0427178036704,5236,MADRID,28030,CALLE ENCOMIENDA DE PALACIOS 85,40.400540243883796,-3.6411565174428118,1,POINT (4497367.567722301 -405604.7955958255),229,Pavones,Calle Hacienda de Pavones nº 342,11,12,-3.634587,40.400368,POINT (4497348.393620864 -404872.003688147),Colegio+Público+Menéndez+Pidal,Pavones,https://www.google.com/maps/dir/Colegio+Público+Menéndez+Pidal/Bicimad+Pavones
Colegio Público Meseta de Orcasitas,2217.490782443814,5237,MADRID,28041,CALLE CAMINO VIEJO DE VILLAVERDE 1,40.37194535398157,-3.7105237988872513,1,POINT (4494184.399139095 -413342.6452817754),221,Glorieta de Cádiz,Calle Antonio López nº 129,12,12,-3.70017,40.38895,POINT (4496077.347674986 -412187.6512511889),Colegio+Público+Meseta+de+Orcasitas,Glorieta+de+Cádiz,https://www.google.com/maps/dir/Colegio+Público+Meseta+de+Orcasitas/Bicimad+Glorieta+de+Cádiz
Colegio Público Mesonero Romanos,1321.564131642511,5238,MADRID,28038,CALLE PONT DE MOLINS 31,40.39368443066321,-3.644378931194483,1,POINT (4496604.382085611 -405964.2392806156),229,Pavones,Calle Hacienda de Pavones nº 342,11,12,-3.634587,40.400368,POINT (4497348.393620864 -404872.003688147),Colegio+Público+Mesonero+Romanos,Pavones,https://www.google.com/maps/dir/Colegio+Público+Mesonero+Romanos/Bicimad+Pavones
Colegio Público Miguel Blasco Vilatela,983.1511895346325,5239,MADRID,28037,CALLE HERMANOS GARCIA NOBLEJAS 70,40.42934657144525,-3.6321872882400443,1,POINT (4500574.273438066 -404604.3309667507),223,Gutierre de Cetina,Calle Gutierre de Cetina nº 77,13,10,-3.640994,40.429706,POINT (4500614.284841758 -405586.6676448087),Colegio+Público+Miguel+Blasco+Vilatela,Gutierre+de+Cetina,https://www.google.com/maps/dir/Colegio+Público+Miguel+Blasco+Vilatela/Bicimad+Gutierre+de+Cetina
Colegio Público Miguel Servet,1911.8707168585672,5242,MADRID,28019,CALLE FRAGATA 33,40.39409637138602,-3.736808786537968,1,POINT (4496650.239117112 -416274.8670269505),232,Caramuel,Calle Caramuel nº 51,5,18,-3.728533714316331,40.40913630273305,POINT (4498324.476616229 -415351.7319152079),Colegio+Público+Miguel+Servet,Caramuel,https://www.google.com/maps/dir/Colegio+Público+Miguel+Servet/Bicimad+Caramuel
Colegio Público Miguel de Unamuno,28.06350383363121,5240,MADRID,28045,CALLE ALICANTE 5,40.39428331181165,-3.6934728308868783,1,POINT (4496671.049230101 -411440.5712689003),184,Beata,Calle Alicante nº 3,16,8,-3.6937222,40.39425,POINT (4496667.340976191 -411468.3886933023),Colegio+Público+Miguel+de+Unamuno,Beata,https://www.google.com/maps/dir/Colegio+Público+Miguel+de+Unamuno/Bicimad+Beata
Colegio Público Mirasierra,3081.2552534378196,5243,MADRID,28034,CALLE LA MASO 22,40.49113903549112,-3.7141984471966625,1,POINT (4507452.979070514 -413752.5654070829),225,Pedro Rico,Calle Pedro Rico nº 4,2,22,-3.688463,40.481086,POINT (4506333.880278716 -410881.7202647889),Colegio+Público+Mirasierra,Pedro+Rico,https://www.google.com/maps/dir/Colegio+Público+Mirasierra/Bicimad+Pedro+Rico
Colegio Público Monte de El Pardo,8897.937651032737,5157,MADRID,28048,AVENIDA GUARDIA 19,40.51715726859882,-3.774264310704681,1,POINT (4510349.315531405 -420453.3699023521),269,Facultad Derecho,Avenida Complutense nº 23,9,15,-3.72937,40.45109,POINT (4502994.74083288 -415445.0243226733),Colegio+Público+Monte+de+El+Pardo,Facultad+Derecho,https://www.google.com/maps/dir/Colegio+Público+Monte+de+El+Pardo/Bicimad+Facultad+Derecho
Colegio Público Méjico (México),207.86048973365786,5233,MADRID,28027,AVENIDA BADAJOZ 74,40.44348651514203,-3.650809049182787,1,POINT (4502148.324770236 -406681.4897286516),238,Carlota O’Neill,Calle Carlota O'Neill nº 32,14,10,-3.648958444298144,40.44370542379883,POINT (4502172.693570442 -406475.0626355441),Colegio+Público+Méjico+(México),Carlota+O’Neill,https://www.google.com/maps/dir/Colegio+Público+Méjico+(México)/Bicimad+Carlota+O’Neill
Colegio Público Méndez Núñez,2829.6957618640527,5234,MADRID,28033,CALLE ALICUN 9,40.47897694855767,-3.659634305967847,1,POINT (4506099.101746099 -407665.9153915383),260,Chamartín,Calle Rodríguez Jaén nº 40,7,16,-3.68391,40.4716,POINT (4505277.903589051 -410373.8318768776),Colegio+Público+Méndez+Núñez,Chamartín,https://www.google.com/maps/dir/Colegio+Público+Méndez+Núñez/Bicimad+Chamartín
Colegio Público Navas de Tolosa,5032.0650804712905,5244,MADRID,28021,CALLE BENIMAMET 109,40.344340447262475,-3.685296004324213,1,POINT (4491111.434979729 -410528.440760819),243,Embajadores 191,Calle Sodio nº 1B,8,16,-3.6903589643353483,40.389258643579105,POINT (4496111.70572105 -411093.2163689993),Colegio+Público+Navas+de+Tolosa,Embajadores+191,https://www.google.com/maps/dir/Colegio+Público+Navas+de+Tolosa/Bicimad+Embajadores+191
Colegio Público Nuestra Señora de la Almudena,164.52819646313947,5247,MADRID,28009,CALLE LOPE DE RUEDA 48,40.419015614377635,-3.6778727223264904,1,POINT (4499424.236557892 -409700.3759176756),189,Retiro-Ibiza,Calle Ibiza nº 18,19,8,-3.6766111,40.41825,POINT (4499339.008755229 -409559.6430178803),Colegio+Público+Nuestra+Señora+de+la+Almudena,Retiro-Ibiza,https://www.google.com/maps/dir/Colegio+Público+Nuestra+Señora+de+la+Almudena/Bicimad+Retiro-Ibiza
Colegio Público Nuestra Señora de la Concepción,188.92605620741026,5248,MADRID,28027,CALLE VIRGEN DEL SAGRARIO 24,40.43714842135485,-3.6500522880397286,1,POINT (4501442.771397248 -406597.0761948078),237,C.D. Concepción,Calle Jose del Hierro nº 5,6,17,-3.64835857929032,40.43715089959262,POINT (4501443.047273415 -406408.1503400223),Colegio+Público+Nuestra+Señora+de+la+Concepción,C.D.+Concepción,https://www.google.com/maps/dir/Colegio+Público+Nuestra+Señora+de+la+Concepción/Bicimad+C.D.+Concepción
Colegio Público Nuestra Señora de la Fuencisla,997.2110167677862,5249,MADRID,28026,CALLE TOMELLOSO 39,40.380200366406136,-3.698252688578992,1,POINT (4495103.34291869 -411973.7715030226),221,Glorieta de Cádiz,Calle Antonio López nº 129,12,12,-3.70017,40.38895,POINT (4496077.347674986 -412187.6512511889),Colegio+Público+Nuestra+Señora+de+la+Fuencisla,Glorieta+de+Cádiz,https://www.google.com/maps/dir/Colegio+Público+Nuestra+Señora+de+la+Fuencisla/Bicimad+Glorieta+de+Cádiz
Colegio Público Nuestra Señora de la Luz,5078.099405614983,5250,MADRID,28021,CALLE MAGNESIA 9,40.34365972711248,-3.705611429857769,1,POINT (4491035.65755926 -412794.6556583331),221,Glorieta de Cádiz,Calle Antonio López nº 129,12,12,-3.70017,40.38895,POINT (4496077.347674986 -412187.6512511889),Colegio+Público+Nuestra+Señora+de+la+Luz,Glorieta+de+Cádiz,https://www.google.com/maps/dir/Colegio+Público+Nuestra+Señora+de+la+Luz/Bicimad+Glorieta+de+Cádiz
Colegio Público Nuestra Señora de la Paloma,37.05888360296307,5251,MADRID,28005,CALLE TABERNILLAS 2,40.4110845196558,-3.711383150975494,1,POINT (4498541.351132024 -413438.5089194755),42,Plaza de los Carros,Carrera de San Francisco nº 1,21,1,-3.7114762,40.4114041,POINT (4498576.926653208 -413448.8888590888),Colegio+Público+Nuestra+Señora+de+la+Paloma,Plaza+de+los+Carros,https://www.google.com/maps/dir/Colegio+Público+Nuestra+Señora+de+la+Paloma/Bicimad+Plaza+de+los+Carros
Colegio Público Nuestra Señora del Lucero,1583.5792704771727,5252,MADRID,28047,CALLE MUÑICO 1,40.40242068072587,-3.7410476655898712,1,POINT (4497576.896994029 -416747.7433816209),232,Caramuel,Calle Caramuel nº 51,5,18,-3.728533714316331,40.40913630273305,POINT (4498324.476616229 -415351.7319152079),Colegio+Público+Nuestra+Señora+del+Lucero,Caramuel,https://www.google.com/maps/dir/Colegio+Público+Nuestra+Señora+del+Lucero/Bicimad+Caramuel
Colegio Público Nuria Espert,6446.511774672736,11167184,MADRID,28055,CALLE MARIA REICHE 34,40.487409274945925,-3.6110407043008768,1,POINT (4507037.784025842 -402245.5935291701),238,Carlota O’Neill,Calle Carlota O'Neill nº 32,14,10,-3.648958444298144,40.44370542379883,POINT (4502172.693570442 -406475.0626355441),Colegio+Público+Nuria+Espert,Carlota+O’Neill,https://www.google.com/maps/dir/Colegio+Público+Nuria+Espert/Bicimad+Carlota+O’Neill
Colegio Público Pablo Picasso,3021.3218093895384,5255,MADRID,28043,CALLE ANGEL LUIS DE LA HERRAN 35,40.47078626667984,-3.647156116262385,1,POINT (4505187.319210209 -406274.0210280208),238,Carlota O’Neill,Calle Carlota O'Neill nº 32,14,10,-3.648958444298144,40.44370542379883,POINT (4502172.693570442 -406475.0626355441),Colegio+Público+Pablo+Picasso,Carlota+O’Neill,https://www.google.com/maps/dir/Colegio+Público+Pablo+Picasso/Bicimad+Carlota+O’Neill
Colegio Público Padre Coloma,3584.42651877257,5256,MADRID,28022,CALLE GUTIERREZ CANALES 19,40.448484963114275,-3.6148900571656988,1,POINT (4502704.749453264 -402674.9548882819),223,Gutierre de Cetina,Calle Gutierre de Cetina nº 77,13,10,-3.640994,40.429706,POINT (4500614.284841758 -405586.6676448087),Colegio+Público+Padre+Coloma,Gutierre+de+Cetina,https://www.google.com/maps/dir/Colegio+Público+Padre+Coloma/Bicimad+Gutierre+de+Cetina
Colegio Público Padre Mariana,1963.017878345474,5257,MADRID,28053,RONDA SUR 145,40.37703559395701,-3.671302626256522,1,POINT (4494751.042061176 -408967.4894578453),236,Concordia,Calle Arroyo del Olivar nº 6,2,21,-3.6659362429356372,40.39382977920336,POINT (4496620.562211088 -408368.8797354235),Colegio+Público+Padre+Mariana,Concordia,https://www.google.com/maps/dir/Colegio+Público+Padre+Mariana/Bicimad+Concordia
Colegio Público Padre Poveda,786.5721618431452,5258,MADRID,28002,AVENIDA ALFONSO XIII 23,40.451218874985805,-3.6677240367753114,1,POINT (4503009.087130676 -408568.3042952128),259,Corazón de María,Calle Santa Hortensia nº 31,7,15,-3.66683,40.44421,POINT (4502228.862736222 -408468.5763648925),Colegio+Público+Padre+Poveda,Corazón+de+María,https://www.google.com/maps/dir/Colegio+Público+Padre+Poveda/Bicimad+Corazón+de+María
Colegio Público Palacio Valdés,46.84302565113655,5260,MADRID,28014,PASEO PRADO 38,40.41055699750786,-3.6929209140194783,1,POINT (4498482.627635133 -411379.0043065247),71,Almadén,Calle Almadén nº 28,17,6,-3.693225,40.4108472,POINT (4498514.932828785 -411412.9254432287),Colegio+Público+Palacio+Valdés,Almadén,https://www.google.com/maps/dir/Colegio+Público+Palacio+Valdés/Bicimad+Almadén
Colegio Público Palomeras Bajas,1724.640565666263,5261,MADRID,28018,CALLE FELIPE DE DIEGO 6,40.37919484869876,-3.6608630426434994,1,POINT (4494991.409199521 -407802.9773183551),236,Concordia,Calle Arroyo del Olivar nº 6,2,21,-3.6659362429356372,40.39382977920336,POINT (4496620.562211088 -408368.8797354235),Colegio+Público+Palomeras+Bajas,Concordia,https://www.google.com/maps/dir/Colegio+Público+Palomeras+Bajas/Bicimad+Concordia
Colegio Público Parque Aluche,4155.510557971418,5263,MADRID,28024,CALLE QUERO 47,40.39083157827759,-3.760997850579394,1,POINT (4496286.804010736 -418973.3556325804),232,Caramuel,Calle Caramuel nº 51,5,18,-3.728533714316331,40.40913630273305,POINT (4498324.476616229 -415351.7319152079),Colegio+Público+Parque+Aluche,Caramuel,https://www.google.com/maps/dir/Colegio+Público+Parque+Aluche/Bicimad+Caramuel
Colegio Público Parque Eugenia de Montijo,4335.183796256954,5151,MADRID,28047,CALLE PARQUE EUGENIA DE MONTIJO 28,40.37837446977044,-3.7523641127237983,1,POINT (4494900.085034964 -418010.1827508429),232,Caramuel,Calle Caramuel nº 51,5,18,-3.728533714316331,40.40913630273305,POINT (4498324.476616229 -415351.7319152079),Colegio+Público+Parque+Eugenia+de+Montijo,Caramuel,https://www.google.com/maps/dir/Colegio+Público+Parque+Eugenia+de+Montijo/Bicimad+Caramuel
Colegio Público Pasamonte,469.9540202684864,5264,MADRID,28030,AVENIDA DOCTOR GARCIA TAPIA 47,40.41226776087093,-3.6480330885473093,1,POINT (4498673.068941578 -406371.8433021267),227,Marroquina,Calle Camino de los Vinateros nº 108,16,6,-3.646697,40.408264,POINT (4498227.372320169 -406222.8087328799),Colegio+Público+Pasamonte,Marroquina,https://www.google.com/maps/dir/Colegio+Público+Pasamonte/Bicimad+Marroquina
Colegio Público Patriarca Obispo Eijo y Garay,216.5089095960258,5253,MADRID,28006,CALLE LOPEZ DE HOYOS 40,40.43969634718427,-3.6816176968334515,1,POINT (4501726.405203158 -410118.1258190828),162,Velázquez 130,Calle Velázquez nº 130,3,23,-3.6831578,40.4385127,POINT (4501594.642201326 -410289.9240125618),Colegio+Público+Patriarca+Obispo+Eijo+y+Garay,Velázquez+130,https://www.google.com/maps/dir/Colegio+Público+Patriarca+Obispo+Eijo+y+Garay/Bicimad+Velázquez+130
Colegio Público Pedro Duque,3063.0985868910325,176881,MADRID,28032,CALLE MARMOLINA 5,40.39721845156279,-3.607306131972689,1,POINT (4496997.787492605 -401829.036666334),229,Pavones,Calle Hacienda de Pavones nº 342,11,12,-3.634587,40.400368,POINT (4497348.393620864 -404872.003688147),Colegio+Público+Pedro+Duque,Pavones,https://www.google.com/maps/dir/Colegio+Público+Pedro+Duque/Bicimad+Pavones
Colegio Público Perú,586.3084050396877,5267,MADRID,28019,CALLE BALEARES 18,40.39379355659199,-3.713263165805392,1,POINT (4496616.529928435 -413648.2312701701),235,San Delfín,Calle San Delfín nº 9,3,21,-3.7080429728445563,40.39440607959559,POINT (4496684.715677296 -413065.9012525062),Colegio+Público+Perú,San+Delfín,https://www.google.com/maps/dir/Colegio+Público+Perú/Bicimad+San+Delfín
Colegio Público Pi I Margall,111.75136149570733,5268,MADRID,28004,PLAZA DOS DE MAYO 2,40.42679288775549,-3.7045815049836723,1,POINT (4500289.998670075 -412679.764809461),12,San Andrés,Calle San Andrés nº 18,10,12,-3.7035918,40.4269483,POINT (4500307.299081996 -412569.3607219302),Colegio+Público+Pi+I+Margall,San+Andrés,https://www.google.com/maps/dir/Colegio+Público+Pi+I+Margall/Bicimad+San+Andrés
Colegio Público Pinar de San José,6506.280741133302,176871,MADRID,28054,CALLE PATRIMONIO DE LA HUMANIDAD 39,40.36301638063713,-3.764359559786085,1,POINT (4493190.430373085 -419348.3877992813),232,Caramuel,Calle Caramuel nº 51,5,18,-3.728533714316331,40.40913630273305,POINT (4498324.476616229 -415351.7319152079),Colegio+Público+Pinar+de+San+José,Caramuel,https://www.google.com/maps/dir/Colegio+Público+Pinar+de+San+José/Bicimad+Caramuel
Colegio Público Pinar del Rey,2840.758821417243,5269,MADRID,28033,AVENIDA SAN LUIS 23,40.471620244949925,-3.6542420626066923,1,POINT (4505280.157246567 -407064.4288815434),262,Pío XII,Avenida Pío XII nº 3,5,18,-3.67712,40.46041,POINT (4504032.238487074 -409616.4103570179),Colegio+Público+Pinar+del+Rey,Pío+XII,https://www.google.com/maps/dir/Colegio+Público+Pinar+del+Rey/Bicimad+Pío+XII
Colegio Público Pintor Rosales,45.192902363908814,5270,MADRID,28002,CALLE PRINCIPE DE VERGARA 139,40.44462379507087,-3.6786369687124028,1,POINT (4502274.926192804 -409785.6270502899),155,María Francisca 1,Calle María Francisca nº 1,8,8,-3.6787169,40.4442258,POINT (4502230.621584177 -409794.5433319399),Colegio+Público+Pintor+Rosales,María+Francisca+1,https://www.google.com/maps/dir/Colegio+Público+Pintor+Rosales/Bicimad+María+Francisca+1
Colegio Público Plácido Domingo,459.2780956249685,5430971,MADRID,28045,CALLE TEJO 5,40.39744510759389,-3.678351566632272,1,POINT (4497023.018726572 -409753.7906457401),188,Méndez Álvaro,Calle Retama nº 5,15,9,-3.6758888,40.3941388,POINT (4496654.962248815 -409479.0711555289),Colegio+Público+Plácido+Domingo,Méndez+Álvaro,https://www.google.com/maps/dir/Colegio+Público+Plácido+Domingo/Bicimad+Méndez+Álvaro
Colegio Público Portugal,206.70688694151352,5273,MADRID,28008,CALLE JUAN ALVAREZ MENDIZABAL 20,40.42491865180926,-3.7149121447760582,1,POINT (4500081.359678914 -413832.1811154859),15,Ventura Rodríguez,Calle Duque de Liria,8,14,-3.713479,40.4260957,POINT (4500212.388084146 -413672.3083719324),Colegio+Público+Portugal,Ventura+Rodríguez,https://www.google.com/maps/dir/Colegio+Público+Portugal/Bicimad+Ventura+Rodríguez
Colegio Público Pradolongo,1929.8100728162085,5275,MADRID,28026,CALLE PARQUE DE LA PALOMA 9,40.37893066302815,-3.7158394380500623,1,POINT (4494962.000185193 -413935.6243408588),235,San Delfín,Calle San Delfín nº 9,3,21,-3.7080429728445563,40.39440607959559,POINT (4496684.715677296 -413065.9012525062),Colegio+Público+Pradolongo,San+Delfín,https://www.google.com/maps/dir/Colegio+Público+Pradolongo/Bicimad+San+Delfín
Colegio Público Príncipe de Asturias,6797.142667481166,5276,MADRID,28049,CALLE KANT 2,40.54156879341023,-3.6968198242534527,1,POINT (4513066.794042897 -411813.9330549756),225,Pedro Rico,Calle Pedro Rico nº 4,2,22,-3.688463,40.481086,POINT (4506333.880278716 -410881.7202647889),Colegio+Público+Príncipe+de+Asturias,Pedro+Rico,https://www.google.com/maps/dir/Colegio+Público+Príncipe+de+Asturias/Bicimad+Pedro+Rico
Colegio Público Puerto Rico,3173.101132742111,5278,MADRID,28041,CALLE SEGURA 74,40.36794449938085,-3.7193980638250013,1,POINT (4493739.026042204 -414332.6041038813),221,Glorieta de Cádiz,Calle Antonio López nº 129,12,12,-3.70017,40.38895,POINT (4496077.347674986 -412187.6512511889),Colegio+Público+Puerto+Rico,Glorieta+de+Cádiz,https://www.google.com/maps/dir/Colegio+Público+Puerto+Rico/Bicimad+Glorieta+de+Cádiz
Colegio Público Pío Baroja,514.7002870455005,5271,MADRID,28030,CALLE LUIS DE HOYOS SAINZ 84,40.40354001887506,-3.6379441929941656,1,POINT (4497701.501146822 -405246.4786013202),229,Pavones,Calle Hacienda de Pavones nº 342,11,12,-3.634587,40.400368,POINT (4497348.393620864 -404872.003688147),Colegio+Público+Pío+Baroja,Pavones,https://www.google.com/maps/dir/Colegio+Público+Pío+Baroja/Bicimad+Pavones
Colegio Público Pío XII,580.6330627776532,5272,MADRID,28029,CALLE DELFIN 2,40.46693859499291,-3.693889291907082,1,POINT (4504758.99835728 -411487.0280008157),215,Remonta,Calle Azucenas nº 1,4,11,-3.6973333,40.4630277,POINT (4504323.639518123 -411871.2121165185),Colegio+Público+Pío+XII,Remonta,https://www.google.com/maps/dir/Colegio+Público+Pío+XII/Bicimad+Remonta
Colegio Público Rabindranath Tagore,860.1594146363765,5279,MADRID,28029,CALLE JULIO PALACIOS 35,40.48309753300499,-3.695908037156805,1,POINT (4506557.803108545 -411712.2217908976),225,Pedro Rico,Calle Pedro Rico nº 4,2,22,-3.688463,40.481086,POINT (4506333.880278716 -410881.7202647889),Colegio+Público+Rabindranath+Tagore,Pedro+Rico,https://www.google.com/maps/dir/Colegio+Público+Rabindranath+Tagore/Bicimad+Pedro+Rico
Colegio Público Ramiro de Maeztu,115.16177403584352,6027,MADRID,28006,CALLE SERRANO 127,40.44209298097929,-3.6861462152769775,1,POINT (4501993.197256837 -410623.2819741112),258,Serrano 113,Calle Serrano nº 113B,4,19,-3.68609,40.44106,POINT (4501878.206340224 -410617.0111451639),Colegio+Público+Ramiro+de+Maeztu,Serrano+113,https://www.google.com/maps/dir/Colegio+Público+Ramiro+de+Maeztu/Bicimad+Serrano+113
Colegio Público Ramón Gómez de la Serna,5518.272852352714,5280,MADRID,28021,CALLE GODELLA 170,40.33969327538041,-3.689581642256062,1,POINT (4490594.114172189 -411006.5055106201),243,Embajadores 191,Calle Sodio nº 1B,8,16,-3.6903589643353483,40.389258643579105,POINT (4496111.70572105 -411093.2163689993),Colegio+Público+Ramón+Gómez+de+la+Serna,Embajadores+191,https://www.google.com/maps/dir/Colegio+Público+Ramón+Gómez+de+la+Serna/Bicimad+Embajadores+191
Colegio Público Ramón María del Valle Inclán,2533.5688678366073,5281,MADRID,28037,CALLE ALCONERA 1,40.429854215285445,-3.618280698226673,1,POINT (4500630.784091861 -403053.1525012153),223,Gutierre de Cetina,Calle Gutierre de Cetina nº 77,13,10,-3.640994,40.429706,POINT (4500614.284841758 -405586.6676448087),Colegio+Público+Ramón+María+del+Valle+Inclán,Gutierre+de+Cetina,https://www.google.com/maps/dir/Colegio+Público+Ramón+María+del+Valle+Inclán/Bicimad+Gutierre+de+Cetina
Colegio Público Ramón Pérez de Ayala,3071.2002917514305,5282,MADRID,28043,CALLE MOTILLA DEL PALANCAR 19,40.46634990040974,-3.6332300542597373,1,POINT (4504693.465176049 -404720.6448562157),238,Carlota O’Neill,Calle Carlota O'Neill nº 32,14,10,-3.648958444298144,40.44370542379883,POINT (4502172.693570442 -406475.0626355441),Colegio+Público+Ramón+Pérez+de+Ayala,Carlota+O’Neill,https://www.google.com/maps/dir/Colegio+Público+Ramón+Pérez+de+Ayala/Bicimad+Carlota+O’Neill
Colegio Público Real Armada,741.0263017428277,5283,MADRID,28030,CALLE CORREGIDOR JUAN FRANCISCO DE LUJAN 114,40.401704924123834,-3.645563131710102,1,POINT (4497497.219333558 -406096.3310826065),227,Marroquina,Calle Camino de los Vinateros nº 108,16,6,-3.646697,40.408264,POINT (4498227.372320169 -406222.8087328799),Colegio+Público+Real+Armada,Marroquina,https://www.google.com/maps/dir/Colegio+Público+Real+Armada/Bicimad+Marroquina
Colegio Público Regimiento Inmemorial del Rey,352.7995460611016,5284,MADRID,28030,AVENIDA MORATALAZ 51,40.407386072133015,-3.6573909677766716,1,POINT (4498129.641837061 -407415.678163935),226,Camino Vinateros,Calle Camino de los Vinateros nº 28,12,10,-3.65779,40.41053,POINT (4498479.622286306 -407460.1888912669),Colegio+Público+Regimiento+Inmemorial+del+Rey,Camino+Vinateros,https://www.google.com/maps/dir/Colegio+Público+Regimiento+Inmemorial+del+Rey/Bicimad+Camino+Vinateros
Colegio Público Reina Victoria,179.26216959066213,5170,MADRID,28006,CALLE PRINCIPE DE VERGARA 61,40.43350060791133,-3.679668747386544,1,POINT (4501036.698662207 -409900.7213324974),166,Diego de León 52,Calle Diego de León nº 52,6,17,-3.678492,40.4345973,POINT (4501158.781867075 -409769.4558894613),Colegio+Público+Reina+Victoria,Diego+de+León+52,https://www.google.com/maps/dir/Colegio+Público+Reina+Victoria/Bicimad+Diego+de+León+52
Colegio Público República Dominicana,4510.35414719904,5293,MADRID,28044,RONDA DON BOSCO 2,40.37628543221565,-3.752199516614656,1,POINT (4494667.534438116 -417991.820633242),232,Caramuel,Calle Caramuel nº 51,5,18,-3.728533714316331,40.40913630273305,POINT (4498324.476616229 -415351.7319152079),Colegio+Público+República+Dominicana,Caramuel,https://www.google.com/maps/dir/Colegio+Público+República+Dominicana/Bicimad+Caramuel
Colegio Público República de Brasil,2095.49458011786,5289,MADRID,28041,AVENIDA FUEROS 34,40.37043939785913,-3.6899302716018574,1,POINT (4494016.756870388 -411045.3953650856),243,Embajadores 191,Calle Sodio nº 1B,8,16,-3.6903589643353483,40.389258643579105,POINT (4496111.70572105 -411093.2163689993),Colegio+Público+República+de+Brasil,Embajadores+191,https://www.google.com/maps/dir/Colegio+Público+República+de+Brasil/Bicimad+Embajadores+191
Colegio Público República de Chile,1816.964341270508,5286,MADRID,28037,CALLE CASTILLO DE UCLES 28,40.42809852476456,-3.6247839198679577,1,POINT (4500435.341517085 -403778.5363708124),223,Gutierre de Cetina,Calle Gutierre de Cetina nº 77,13,10,-3.640994,40.429706,POINT (4500614.284841758 -405586.6676448087),Colegio+Público+República+de+Chile,Gutierre+de+Cetina,https://www.google.com/maps/dir/Colegio+Público+República+de+Chile/Bicimad+Gutierre+de+Cetina
Colegio Público República de Colombia,3374.9828617583894,5285,MADRID,28025,PLAZA ALLOZ 3,40.37598607317299,-3.737129783095065,1,POINT (4494634.209941922 -416310.6763389947),220,Marqués de Vadillo,Glorieta Marqués de Vadillo nº 9,4,19,-3.716591,40.398247,POINT (4497112.284980891 -414019.4641230708),Colegio+Público+República+de+Colombia,Marqués+de+Vadillo,https://www.google.com/maps/dir/Colegio+Público+República+de+Colombia/Bicimad+Marqués+de+Vadillo
Colegio Público República de Ecuador,1528.1092394382654,5290,MADRID,28019,CALLE VALLE DE ORO 41,40.38761083602051,-3.7252507882198085,1,POINT (4495928.272622701 -414985.5037616513),220,Marqués de Vadillo,Glorieta Marqués de Vadillo nº 9,4,19,-3.716591,40.398247,POINT (4497112.284980891 -414019.4641230708),Colegio+Público+República+de+Ecuador,Marqués+de+Vadillo,https://www.google.com/maps/dir/Colegio+Público+República+de+Ecuador/Bicimad+Marqués+de+Vadillo
Colegio Público República de El Salvador,4398.643906545586,5291,MADRID,28021,CALLE SACEDON 2,40.34949911149915,-3.6979477280735917,1,POINT (4491685.694855729 -411939.7526192834),221,Glorieta de Cádiz,Calle Antonio López nº 129,12,12,-3.70017,40.38895,POINT (4496077.347674986 -412187.6512511889),Colegio+Público+República+de+El+Salvador,Glorieta+de+Cádiz,https://www.google.com/maps/dir/Colegio+Público+República+de+El+Salvador/Bicimad+Glorieta+de+Cádiz
Colegio Público República de Panamá Nº 1,2632.165140754293,5262,MADRID,28037,CALLE PEONES 2,40.42658755563361,-3.617602405153018,1,POINT (4500267.141202823 -402977.494476514),223,Gutierre de Cetina,Calle Gutierre de Cetina nº 77,13,10,-3.640994,40.429706,POINT (4500614.284841758 -405586.6676448087),Colegio+Público+República+de+Panamá+Nº+1,Gutierre+de+Cetina,https://www.google.com/maps/dir/Colegio+Público+República+de+Panamá+Nº+1/Bicimad+Gutierre+de+Cetina
Colegio Público República de Paraguay,1427.6932616433578,5287,MADRID,28034,CALLE MANRESA 60,40.49194816139676,-3.695267856666852,1,POINT (4507543.050554317 -411640.8087273171),225,Pedro Rico,Calle Pedro Rico nº 4,2,22,-3.688463,40.481086,POINT (4506333.880278716 -410881.7202647889),Colegio+Público+República+de+Paraguay,Pedro+Rico,https://www.google.com/maps/dir/Colegio+Público+República+de+Paraguay/Bicimad+Pedro+Rico
Colegio Público República de Uruguay,2246.5203837556032,5292,MADRID,28047,AVENIDA NUESTRA SEÑORA DE VALVANERA 120,40.39347350069245,-3.741232360556739,1,POINT (4496580.901468674 -416768.3474380147),232,Caramuel,Calle Caramuel nº 51,5,18,-3.728533714316331,40.40913630273305,POINT (4498324.476616229 -415351.7319152079),Colegio+Público+República+de+Uruguay,Caramuel,https://www.google.com/maps/dir/Colegio+Público+República+de+Uruguay/Bicimad+Caramuel
Colegio Público República de Venezuela,1356.2086324094507,5288,MADRID,28026,CALLE CERECINOS 8,40.38358402272625,-3.713626711959121,1,POINT (4495480.009817264 -413688.7861900565),235,San Delfín,Calle San Delfín nº 9,3,21,-3.7080429728445563,40.39440607959559,POINT (4496684.715677296 -413065.9012525062),Colegio+Público+República+de+Venezuela,San+Delfín,https://www.google.com/maps/dir/Colegio+Público+República+de+Venezuela/Bicimad+San+Delfín
Colegio Público Rosa Luxemburgo,4709.3668783141375,5295,MADRID,28023,CALLE BARDEGUERAL 16,40.450031818221355,-3.7715711526219784,1,POINT (4502876.944576114 -420152.9177408014),269,Facultad Derecho,Avenida Complutense nº 23,9,15,-3.72937,40.45109,POINT (4502994.74083288 -415445.0243226733),Colegio+Público+Rosa+Luxemburgo,Facultad+Derecho,https://www.google.com/maps/dir/Colegio+Público+Rosa+Luxemburgo/Bicimad+Facultad+Derecho
Colegio Público Rufino Blanco,162.314770575763,5298,MADRID,28010,CALLE GENERAL ALVAREZ DE CASTRO 46,40.43821121285092,-3.7024604612596157,1,POINT (4501561.080805411 -412443.1571827641),209,Canal,Calle José Abascal frente al nº 2,15,6,-3.7038333,40.4386944,POINT (4501614.868952803 -412596.3006447438),Colegio+Público+Rufino+Blanco,Canal,https://www.google.com/maps/dir/Colegio+Público+Rufino+Blanco/Bicimad+Canal
Colegio Público Sagunto,5388.423471086323,5300,MADRID,28021,CALLE PATERNA 14,40.34116249559141,-3.6849106315684015,1,POINT (4490757.667017941 -410485.4523774916),243,Embajadores 191,Calle Sodio nº 1B,8,16,-3.6903589643353483,40.389258643579105,POINT (4496111.70572105 -411093.2163689993),Colegio+Público+Sagunto,Embajadores+191,https://www.google.com/maps/dir/Colegio+Público+Sagunto/Bicimad+Embajadores+191
Colegio Público San Benito,235.1927631858491,5301,MADRID,28027,CALLE JUAN PEREZ ZUÑIGA 36,40.4442650725657,-3.6469252698024386,1,POINT (4502234.993386193 -406248.2711700688),238,Carlota O’Neill,Calle Carlota O'Neill nº 32,14,10,-3.648958444298144,40.44370542379883,POINT (4502172.693570442 -406475.0626355441),Colegio+Público+San+Benito,Carlota+O’Neill,https://www.google.com/maps/dir/Colegio+Público+San+Benito/Bicimad+Carlota+O’Neill
Colegio Público San Carlos,5149.116318072955,5302,MADRID,28021,CALLE VILLASTAR 8,40.34402221395892,-3.7111491204293108,1,POINT (4491076.009410425 -413412.4020097029),221,Glorieta de Cádiz,Calle Antonio López nº 129,12,12,-3.70017,40.38895,POINT (4496077.347674986 -412187.6512511889),Colegio+Público+San+Carlos,Glorieta+de+Cádiz,https://www.google.com/maps/dir/Colegio+Público+San+Carlos/Bicimad+Glorieta+de+Cádiz
Colegio Público San Cristóbal,156.66842958458437,5303,MADRID,28015,CALLE BRAVO MURILLO 41,40.43743329914089,-3.7044567612586508,1,POINT (4501474.483847328 -412665.8493254597),209,Canal,Calle José Abascal frente al nº 2,15,6,-3.7038333,40.4386944,POINT (4501614.868952803 -412596.3006447438),Colegio+Público+San+Cristóbal,Canal,https://www.google.com/maps/dir/Colegio+Público+San+Cristóbal/Bicimad+Canal
Colegio Público San Eugenio y San Isidro,183.37352575900803,5304,MADRID,28005,CALLE PEÑUELAS 31,40.402134715838024,-3.7031694724884066,1,POINT (4497545.063528329 -412522.2490602405),178,Paseo de la Esperanza,Paseo de la Esperanza nº 21,15,8,-3.7043611,40.401,POINT (4497418.747539046 -412655.1780668597),Colegio+Público+San+Eugenio+y+San+Isidro,Paseo+de+la+Esperanza,https://www.google.com/maps/dir/Colegio+Público+San+Eugenio+y+San+Isidro/Bicimad+Paseo+de+la+Esperanza
Colegio Público San Ignacio de Loyola,1597.5138698481471,5305,MADRID,28025,AVENIDA ABRANTES 1,40.38484910708361,-3.7217220947079097,1,POINT (4495620.838363736 -414591.8604477734),220,Marqués de Vadillo,Glorieta Marqués de Vadillo nº 9,4,19,-3.716591,40.398247,POINT (4497112.284980891 -414019.4641230708),Colegio+Público+San+Ignacio+de+Loyola,Marqués+de+Vadillo,https://www.google.com/maps/dir/Colegio+Público+San+Ignacio+de+Loyola/Bicimad+Marqués+de+Vadillo
Colegio Público San Ildefonso,178.56268141264414,6028,MADRID,28005,CALLE ALFONSO VI 1,40.41307968243987,-3.712170272137244,1,POINT (4498763.451637196 -413526.3150343787),174,Segovia 26,Calle Segovia nº 26,18,4,-3.7135833,40.4138333,POINT (4498847.343960243 -413683.9434243567),Colegio+Público+San+Ildefonso,Segovia+26,https://www.google.com/maps/dir/Colegio+Público+San+Ildefonso/Bicimad+Segovia+26
Colegio Público San Isidoro,185.39960697408648,5306,MADRID,28014,CALLE FUENTERRABIA 15,40.40650867169137,-3.6813417078981567,1,POINT (4498031.970066676 -410087.3393411515),83,Puerta de Granada,Avenida de Menéndez Pelayo nº 38,12,12,-3.6803874,40.4051451,POINT (4497880.177960332 -409980.8866722419),Colegio+Público+San+Isidoro,Puerta+de+Granada,https://www.google.com/maps/dir/Colegio+Público+San+Isidoro/Bicimad+Puerta+de+Granada
Colegio Público San Juan Bautista,909.6583470669622,5308,MADRID,28043,CALLE SORZANO 1,40.451160716316814,-3.6590202395182456,1,POINT (4503002.612937259 -407597.4181733208),222,Condesa de Venadito,Calle Condesa de Venadito nº 2,2,22,-3.65741,40.44315,POINT (4502110.864075982 -407417.8011451731),Colegio+Público+San+Juan+Bautista,Condesa+de+Venadito,https://www.google.com/maps/dir/Colegio+Público+San+Juan+Bautista/Bicimad+Condesa+de+Venadito
Colegio Público San Juan Bosco,745.8332887631806,5309,MADRID,28017,CALLE SANTA IRENE 2,40.41968378283889,-3.652559914198146,1,POINT (4499498.616730763 -406876.7916557746),242,Marqués de Corbera 52,Avenida Marqués de Corbera nº 52,7,17,-3.651034981803642,40.426207143200884,POINT (4500224.793884521 -406706.6915793895),Colegio+Público+San+Juan+Bosco,Marqués+de+Corbera+52,https://www.google.com/maps/dir/Colegio+Público+San+Juan+Bosco/Bicimad+Marqués+de+Corbera+52
